fac_cd,fac_nm,ctp_cd,ctp_nm,sig_cd,sig_nm,emd_cd,emd_nm,all_addr_nm,lat,lon
SH00009296,가곡고등학교,5100000000,강원특별자치도,5123000000,삼척시,5123035023,가곡면,강원특별자치도 삼척시 가곡면 오저리 88,37.1459108,129.2051845
SH00004100,건국고등학교,2600000000,부산광역시,2638000000,사하구,2638010300,하단동,부산광역시 사하구 하단동 산 41,35.1095270015,128.969616042
SH00006665,건국대학교사범대학부속고등학교,1100000000,서울특별시,1121500000,광진구,1121510700,화양동,서울특별시 광진구 화양동 5-28,37.5391833068,127.0747098662
SH00004187,건양대학교병설건양고등학교,4400000000,충청남도,4423000000,논산시,4423039028,양촌면,충청남도 논산시 양촌면 남산리 564,36.1413336,127.2346143
SH00006563,검단고등학교,2800000000,인천광역시,2826000000,서구,2826011300,마전동,인천광역시 서구 마전동 249-16,37.6035119,126.6650099
SH00001890,경구고등학교,4700000000,경상북도,4719000000,구미시,4719010400,봉곡동,경상북도 구미시 봉곡동 279,36.1482441337,128.307874169
SH00002535,경기게임마이스터고등학교,4100000000,경기도,4117300000,안양시 동안구,4117310100,비산동,경기도 안양시 동안구 비산동 1101,37.397668382994,126.947553687808
SH00000433,경기경영고등학교,4100000000,경기도,4119400000,부천시 소사구,4119410200,심곡본동,경기도 부천시 심곡본동 768-9,37.4748913447366,126.772646474884
SH00010478,경기고등학교,1100000000,서울특별시,1168000000,강남구,1168010500,삼성동,서울특별시 강남구 삼성동 74-4,37.5161265,127.05525
SH00001499,경기과학고등학교,4100000000,경기도,4111100000,수원시 장안구,4111113500,송죽동,경기도 수원시 장안구 송죽동 68-23,37.3091461,127.0062228
SH00009580,경기관광고등학교,4100000000,경기도,4167000000,여주시,4167035037,대신면,경기도 여주시 대신면 율촌리 282-1,37.375399,127.5894903
SH00007555,경기국제통상고등학교,4100000000,경기도,4119200000,부천시 원미구,4119210800,중동,경기도 부천시 중동 1171-1,37.5004456,126.7613335
SH00003183,경기기계공업고등학교,1100000000,서울특별시,1135000000,노원구,1135010400,하계동,서울특별시 노원구 하계동 78-1,37.6344163,127.0742785
SH00000401,경기대명고등학교,4100000000,경기도,4111300000,수원시 권선구,4111314100,당수동,경기도 수원시 권선구 당수동 122,37.2957968,126.9401894
OR00000053,경기도공업계고등학교공동실습소,4100000000,경기도,4150000000,이천시,4150010700,안흥동,경기도 이천시 안흥동 140,37.2794046379858,127.459307667473
OR00000054,경기도농업계고등학교공동실습소,4100000000,경기도,4167000000,여주시,4167034523,세종대왕면,경기도 여주시 능서면 왕대리 973-1,37.2960242987642,127.621195654867
SH00001547,경기모바일과학고등학교,4100000000,경기도,4127100000,안산시 상록구,4127111000,팔곡일동,경기도 안산시 상록구 팔곡일동 253,37.3059871,126.8982469
SH00005492,경기물류고등학교,4100000000,경기도,4122000000,평택시,4122025321,안중읍,경기도 평택시 안중읍 안중리 293-46,36.9867776,126.9297531
SH00002480,경기북과학고등학교,4100000000,경기도,4115000000,의정부시,4115011100,녹양동,경기도 의정부시 녹양동 305,37.7585484,127.0195647
SH00007255,경기상업고등학교,1100000000,서울특별시,1111000000,종로구,1111010100,청운동,서울특별시 종로구 청운동 89-3,37.5892588925,126.9700589043
SH00000384,경기세무고등학교,4100000000,경기도,4148000000,파주시,4148037035,적성면,경기도 파주시 적성면 마지리 156-1,37.9540198,126.9140483
SH00002463,경기스마트고등학교,4100000000,경기도,4139000000,시흥시,4139013200,정왕동,경기도 시흥시 정왕동 1522,37.3432172578667,126.752050748218
SH00001817,경기여자고등학교,1100000000,서울특별시,1168000000,강남구,1168010300,개포동,서울특별시 강남구 개포동 152,37.486824,127.0660933
SH00006653,경기여자상업고등학교,1100000000,서울특별시,1114000000,중구,1114017300,만리동1가,서울특별시 중구 중림동 324-14,37.5570331,126.9668351
SH00000355,경기영상과학고등학교,4100000000,경기도,4128700000,고양시 일산서구,4128710200,주엽동,경기도 고양시 일산서구 주엽동 95,37.6656821,126.7620059
SH00004172,경기예술고등학교,4100000000,경기도,4119200000,부천시 원미구,4119210800,중동,경기도 부천시 중동 1031,37.5058162,126.761409
SH00006236,경기외국어고등학교,4100000000,경기도,4143000000,의왕시,4143010100,고천동,경기도 의왕시 고천동 438-1,37.3477176,126.9597171
SH00006566,경기자동차과학고등학교,4100000000,경기도,4139000000,시흥시,4139013400,무지내동,경기도 시흥시 무지내동 341-2,37.4142224,126.8393164
SH00006996,경기창조고등학교,4100000000,경기도,4155000000,안성시,4155025029,공도읍,경기도 안성시 공도읍 만정리 789,37.0019669,127.1720565
SH00009241,경기체육고등학교,4100000000,경기도,4111100000,수원시 장안구,4111113300,천천동,경기도 수원시 장안구 천천동 30-1,37.3040812,126.9776796
SH00005480,경기폴리텍고등학교,4100000000,경기도,4141000000,군포시,4141010400,산본동,경기도 군포시 산본동 1146-14,37.3600172165524,126.923906305292
SH00001420,경기항공고등학교,4100000000,경기도,4121000000,광명시,4121010100,광명동,경기도 광명시 광명동 42-122,37.4734532372915,126.857426729785
SH00009016,경남간호고등학교,4800000000,경상남도,4886000000,산청군,4886039024,생비량면,경상남도 산청군 생비량면 가계리 526-1,35.3585247,128.08396
SH00006584,경남고등학교,2600000000,부산광역시,2614000000,서구,2614010300,동대신동3가,부산광역시 서구 동대신동1가 28-3,35.1201995318,129.020041183
SH00201170,경남고성음악고등학교,4800000000,경상남도,4882000000,고성군,4882032021,하일면,경상남도 고성군 하일면 학림리 701-2,34.9440368239747,128.193201033231
SH00006847,경남공업고등학교,2600000000,부산광역시,2623000000,부산진구,2623010200,전포동,부산광역시 부산진구 전포동 696-1,35.1533485794,129.063639965
SH00005299,경남과학고등학교,4800000000,경상남도,4817000000,진주시,4817035027,진성면,경상남도 진주시 진성면 가진리 75-19,35.2013394,128.2247275
SH00003822,경남관광고등학교,4800000000,경상남도,4812100000,창원시 의창구,4812112700,봉곡동,경상남도 창원시 의창구 봉곡동 169,35.2485272,128.6752484
SH00006078,경남로봇고등학교,4800000000,경상남도,4873000000,함안군,4873034023,대산면,경상남도 함안군 대산면 평림리 955,35.3479560926,128.439222758
SH00006069,경남산업고등학교,4800000000,경상남도,4831000000,거제시,4831038024,하청면,경상남도 거제시 하청면 하청리 698-1,34.9536514537,128.652587964
SH00007203,경남여자고등학교,2600000000,부산광역시,2617000000,동구,2617010200,수정동,부산광역시 동구 수정동 558,35.1329232064,129.043949237
SH00004525,경남예술고등학교,4800000000,경상남도,4817000000,진주시,4817012300,장재동,경상남도 진주시 장재동 417-2,35.2159149,128.102385
SH00001863,경남외국어고등학교,4800000000,경상남도,4833000000,양산시,4833011200,어곡동,경상남도 양산시 어곡동 1427-1,35.3971236838,129.0134242
SH00006441,경남자동차고등학교,4800000000,경상남도,4817000000,진주시,4817012300,장재동,경상남도 진주시 장재동 590,35.2194944,128.1015008
SH00003839,경남자영고등학교,4800000000,경상남도,4824000000,사천시,4824031023,정동면,경상남도 사천시 정동면 화암리 746-1,35.0784415712,128.100412541
SH00077471,경남전자고등학교,4800000000,경상남도,4812500000,창원시 마산합포구,4812511900,상남동,경상남도 창원시 마산합포구 상남동 21-11,35.2135129713589,128.571639388419
SH00003829,경남정보고등학교,4800000000,경상남도,4817000000,진주시,4817013200,호탄동,경상남도 진주시 호탄동 884-2,35.1578878781,128.116815388
SH00005300,경남체육고등학교,4800000000,경상남도,4817000000,진주시,4817035027,진성면,경상남도 진주시 진성면 가진리 32,35.2036835,128.2216347
SH00002400,경남항공고등학교,4800000000,경상남도,4882000000,고성군,4882025027,고성읍,경상남도 고성군 고성읍 교사리 338-5,34.9785344649,128.307390208
SH00009781,경남해양과학고등학교,4800000000,경상남도,4884000000,남해군,4884033022,삼동면,경상남도 남해군 삼동면 지족리 192-1,34.8308881,128.004195
SH00007523,경덕여자고등학교,2700000000,대구광역시,2717000000,서구,2717010500,중리동,대구광역시 서구 중리동 100-1,35.8639244,128.5493317
SH00006680,경동고등학교,1100000000,서울특별시,1129000000,성북구,1129011300,삼선동3가,서울특별시 성북구 삼선동3가 43-1,37.586143,127.0149687
SH00007539,경명여자고등학교,2700000000,대구광역시,2723000000,북구,2723010200,칠성동2가,대구광역시 북구 칠성동2가 411,35.8803053,128.5988073
SH00008945,경문고등학교,1100000000,서울특별시,1159000000,동작구,1159010600,동작동,서울특별시 동작구 동작동,37.4925875768791,126.981608921875
SH00007037,경민IT고등학교,4100000000,경기도,4115000000,의정부시,4115011000,가능동,경기도 의정부시 가능동 562-6,37.7460838,127.0251133
SH00007369,경민고등학교,4100000000,경기도,4115000000,의정부시,4115011000,가능동,경기도 의정부시 가능동 562-6,37.7460838,127.0251133
SH00007038,경민비즈니스고등학교,4100000000,경기도,4115000000,의정부시,4115011000,가능동,경기도 의정부시 가능동 562-6,37.7460838,127.0251133
SH00004621,경복고등학교,1100000000,서울특별시,1111000000,종로구,1111010100,청운동,서울특별시 종로구 청운동 89-62,37.5867302,126.9717701
SH00005992,경복비즈니스고등학교,1100000000,서울특별시,1150000000,강서구,1150010200,등촌동,서울특별시 강서구 등촌동 131,37.5580254,126.8526702733
SH00000457,경복여자고등학교,1100000000,서울특별시,1150000000,강서구,1150010200,등촌동,서울특별시 강서구 등촌동 131,37.5578207513,126.8505974178
SH00009005,경북간호고등학교,4700000000,경상북도,4711300000,포항시 북구,4711335024,죽장면,경상북도 포항시 북구 죽장면 입암리 650-1,36.1639150865,129.093229668
SH00006188,경북고등학교,2700000000,대구광역시,2726000000,수성구,2726010700,황금동,대구광역시 수성구 황금동 9,35.8444835,128.6406387
SH00008975,가락고등학교,1100000000,서울특별시,1171000000,송파구,1171010400,송파동,서울특별시 송파구 송파동 172,37.5011923,127.1165911
SH00004536,가림고등학교,2800000000,인천광역시,2826000000,서구,2826011200,가좌동,인천광역시 서구 가좌동 30-92,37.4926201856,126.681200495
SH00000322,가야고등학교,2600000000,부산광역시,2623000000,부산진구,2623011000,가야동,부산광역시 부산진구 가야동 산 33-3,35.146303823,129.031087313
SH00000328,가온고등학교,4100000000,경기도,4155000000,안성시,4155013200,발화동,경기도 안성시 발화동 215-7,36.9883406,127.2759642
SH00000368,가운고등학교,4100000000,경기도,4136000000,남양주시,4136011200,다산동,경기도 남양주시 다산동 684,37.5994462148,127.160706
SH00006417,가은고등학교,4700000000,경상북도,4728000000,문경시,4728025321,가은읍,경상북도 문경시 가은읍 왕능리 218,36.6456965574,128.07152766
SH00001743,가재울고등학교,1100000000,서울특별시,1141000000,서대문구,1141011900,북가좌동,서울특별시 서대문구 북가좌동 476,37.5743151,126.9095302
SH00001584,가정고등학교,2800000000,인천광역시,2826000000,서구,2826010800,가정동,인천광역시 서구 가정동 430-41,37.5133419,126.6794764
SH00009586,가좌고등학교,4100000000,경기도,4128700000,고양시 일산서구,4128710600,가좌동,경기도 고양시 일산서구 가좌동 1097,37.6878399,126.7198455
SH00009236,가평고등학교,4100000000,경기도,4182000000,가평군,4182025022,가평읍,경기도 가평군 가평읍 대곡리 113,37.818631,127.5140428
SH00001405,간동고등학교,5100000000,강원특별자치도,5179000000,화천군,5179031021,간동면,강원특별자치도 화천군 간동면 유촌리 608-1,38.0562439117394,127.792459466841
SH00003781,간디고등학교,4800000000,경상남도,4886000000,산청군,4886038030,신안면,경상남도 산청군 신안면 외송리 122,35.3586671,127.9441077
SH00202112,갈매고등학교,4100000000,경기도,4131000000,구리시,4131010100,갈매동,경기도 구리시 갈매동 407-1,37.6269702505,127.117314523
SH00002466,갈산고등학교,4400000000,충청남도,4480000000,홍성군,4480038021,갈산면,충청남도 홍성군 갈산면 상촌리 227-1,36.6055017453,126.5485844887
SH00202275,감일고등학교,4100000000,경기도,4145000000,하남시,4145011500,감이동,경기 하남시 감이동 450,37.5095434868425,127.160169485737
SH00002464,갑천고등학교,5100000000,강원특별자치도,5173000000,횡성군,5173034026,갑천면,강원특별자치도 횡성군 갑천면 매일리 600,37.5604957124,128.1142441451
SH00009286,강경고등학교,4400000000,충청남도,4423000000,논산시,4423025021,강경읍,충청남도 논산시 강경읍 남교리 48,36.1591195,127.020207
SH00005457,강경상업고등학교,4400000000,충청남도,4423000000,논산시,4423025021,강경읍,충청남도 논산시 강경읍 남교리 1-12,36.1609319,127.0231775
SH00003812,강구정보고등학교,4700000000,경상북도,4777000000,영덕군,4777031033,강구면,경상북도 영덕군 강구면 삼사리 21,36.3533768865,129.379949199
SH00004678,강남영상미디어고등학교,2800000000,인천광역시,2871000000,강화군,2871033021,길상면,인천광역시 강화군 길상면 온수리 409-4,37.642542,126.4793274
SH00202053,강동고등학교,3100000000,울산광역시,3120000000,북구,3120011800,산하동,울산광역시 북구 산하동 산 61-11,35.6323716770437,129.435479713144
SH00007201,강동고등학교,1100000000,서울특별시,1174000000,강동구,1174010300,상일동,서울특별시 강동구 상일동 267,37.5499168307,127.16066708
SH00004129,강동고등학교,2700000000,대구광역시,2714000000,동구,2714012400,신서동,대구광역시 동구 신서동 560,35.8654134,128.7293549
SH00007556,강릉고등학교,5100000000,강원특별자치도,5115000000,강릉시,5115011200,초당동,강원특별자치도 강릉시 초당동 57-2,37.7888349,128.9167454
SH00006204,강릉명륜고등학교,5100000000,강원특별자치도,5115000000,강릉시,5115011000,교동,강원특별자치도 강릉시 교동 236,37.7630795,128.8945932
SH00002526,강릉문성고등학교,5100000000,강원특별자치도,5115000000,강릉시,5115013200,지변동,강원특별자치도 강릉시 지변동 산 73,37.7751686,128.870137
SH00009645,강릉여자고등학교,5100000000,강원특별자치도,5115000000,강릉시,5115010900,옥천동,강원특별자치도 강릉시 옥천동 237-1,37.7590852,128.9033417
SH00001526,강릉정보공업고등학교,5100000000,강원특별자치도,5115000000,강릉시,5115025022,주문진읍,강원특별자치도 강릉시 주문진읍 교항리 48-123,37.8798246,128.8310431
SH00009274,강릉제일고등학교,5100000000,강원특별자치도,5115000000,강릉시,5115011000,교동,강원특별자치도 강릉시 교동 886,37.7604352698834,128.889673826229
SH00009275,강릉중앙고등학교,5100000000,강원특별자치도,5115000000,강릉시,5115012500,입암동,강원특별자치도 강릉시 입암동 525,37.7579665,128.9109033
SH00007538,강북고등학교,2700000000,대구광역시,2723000000,북구,2723012600,태전동,대구광역시 북구 태전동 산 14-1,35.9298604,128.5409038
SH00007337,강서고등학교,1100000000,서울특별시,1147000000,양천구,1147010200,목동,서울특별시 양천구 목동 735,37.5364895,126.8663661
SH00001761,강서공업고등학교,1100000000,서울특별시,1150000000,강서구,1150010900,방화동,서울특별시 강서구 방화동 834,37.5754999,126.8160214
SH00000413,강원고등학교,5100000000,강원특별자치도,5111000000,춘천시,5111031023,동면,강원특별자치도 춘천시 동면 장학리 산 36,37.8963889,127.7569668
SH00000414,강원과학고등학교,5100000000,강원특별자치도,5113000000,원주시,5113011200,태장동,강원특별자치도 원주시 태장동 335-4,37.375427932,127.9731966029
SH00006242,강원생활과학고등학교,5100000000,강원특별자치도,5172000000,홍천군,5172036021,남면,강원특별자치도 홍천군 남면 양덕원리 66,37.6082907,127.7701147
SH00000411,강원애니고등학교,5100000000,강원특별자치도,5111000000,춘천시,5111035022,서면,강원특별자치도 춘천시 서면 금산리 584,37.9061644263,127.700439348
SH00006215,강원예술고등학교,5100000000,강원특별자치도,5115000000,강릉시,5115033027,구정면,강원특별자치도 강릉시 구정면 제비리 132-2,37.721856,128.8647783
SH00001414,강원외국어고등학교,5100000000,강원특별자치도,5180000000,양구군,5180025023,양구읍,강원특별자치도 양구군 양구읍 하리 500,38.1201666,127.9905545
SH00009248,강원체육고등학교,5100000000,강원특별자치도,5111000000,춘천시,5111012700,송암동,강원특별자치도 춘천시 송암동 129-1,37.8591223843,127.6948031232
SH00009331,강일고등학교,1100000000,서울특별시,1174000000,강동구,1174011000,강일동,서울특별시 강동구 강일동 685-1,37.5639542,127.1777631
SH00002527,강일여자고등학교,5100000000,강원특별자치도,5115000000,강릉시,5115011000,교동,강원특별자치도 강릉시 교동 1133-2,37.7644267,128.8863412
SH00006430,강진고등학교,4600000000,전라남도,4681000000,강진군,4681025023,강진읍,전라남도 강진군 강진읍 서성리 302-5,34.6384165,126.7592459
SH00009782,강호항공고등학교,5200000000,전북특별자치도,5279000000,고창군,5279025030,고창읍,전라북도 고창군 고창읍 덕산리 17,35.4254275,126.6996976
SH00005486,강화고등학교,2800000000,인천광역시,2871000000,강화군,2871025023,강화읍,인천광역시 강화군 강화읍 국화리 산 165,37.7486528,126.472667
SH00005487,강화여자고등학교,2800000000,인천광역시,2871000000,강화군,2871025022,강화읍,인천광역시 강화군 강화읍 관청리 794-1,37.7546683,126.4787301
SH00001427,개금고등학교,2600000000,부산광역시,2623000000,부산진구,2623011100,개금동,부산광역시 부산진구 개금동 578-7,35.1614034,129.0253177
SH00004080,개성고등학교,2600000000,부산광역시,2623000000,부산진구,2623010900,당감동,부산광역시 부산진구 당감동 642,35.167673276,129.029955019
SH00009733,개포고등학교,1100000000,서울특별시,1168000000,강남구,1168010300,개포동,서울특별시 강남구 개포동 173,37.4846776,127.0596014
SH00003761,거제고등학교,4800000000,경상남도,4831000000,거제시,4831010500,아주동,경상남도 거제시 아주동 295-4,34.8610892105,128.688426462
SH00009000,거제공업고등학교,4800000000,경상남도,4831000000,거제시,4831010900,고현동,경상남도 거제시 고현동 920-2,34.8821058168,128.614195468
SH00002391,거제상문고등학교,4800000000,경상남도,4831000000,거제시,4831011100,문동동,경상남도 거제시 문동동 438,34.8633917607,128.646716637
SH00002393,거제여자상업고등학교,4800000000,경상남도,4831000000,거제시,4831034029,거제면,경상남도 거제시 거제면 동상리 646,34.8520249117,128.595060569
SH00010520,거제옥포고등학교,4800000000,경상남도,4831000000,거제시,4831037030,연초면,경상남도 거제시 옥포동 1254-1,34.9054075054,128.6859882
SH00001861,거제제일고등학교,4800000000,경상남도,4831000000,거제시,4831034026,거제면,경상남도 거제시 거제면 서정리 540,34.8519707826,128.586798405
SH00002392,거제중앙고등학교,4800000000,경상남도,4831000000,거제시,4831010900,고현동,경상남도 거제시 고현동 107-1,34.8928544367,128.63723667
SH00001415,거진정보공업고등학교,5100000000,강원특별자치도,5182000000,고성군,5182025321,거진읍,강원특별자치도 고성군 거진읍 거진리 437-1,38.4408559,128.450281
SH00009787,거창고등학교,4800000000,경상남도,4888000000,거창군,4888025022,거창읍,경상남도 거창군 거창읍 중앙리 411,35.6928364,127.9114207
SH00009019,거창공업고등학교,4800000000,경상남도,4888000000,거창군,4888040028,가조면,경상남도 거창군 가조면 마상리 492-14,35.7139202809867,128.015232142826
SH00006098,거창대성고등학교,4800000000,경상남도,4888000000,거창군,4888025021,거창읍,경상남도 거창군 거창읍 상림리 362,35.6900275,127.9029272
SH00005293,거창여자고등학교,4800000000,경상남도,4888000000,거창군,4888025022,거창읍,경상남도 거창군 거창읍 중앙리 445-1,35.6929355,127.9090063
SH00204825,거창연극고등학교,4800000000,경상남도,4888000000,거창군,4888035021,위천면,경상남도 거창군 위천면 장기리 381,35.7558571920434,127.834343649565
SH00009017,거창중앙고등학교,4800000000,경상남도,4888000000,거창군,4888025031,거창읍,경상남도 거창군 거창읍 가지리 383,35.6933552,127.9028171
SH00006585,경성전자고등학교,2600000000,부산광역시,2614000000,서구,2614010600,서대신동3가,부산광역시 서구 서대신동3가 184-4,35.1165842418,129.01244569
SH00004754,경신고등학교,1100000000,서울특별시,1111000000,종로구,1111016900,혜화동,서울특별시 종로구 혜화동 5-119,37.5914502,127.0006702
SH00009624,경신고등학교,2700000000,대구광역시,2726000000,수성구,2726010100,범어동,대구광역시 수성구 범어동 100-5,35.8554457,128.6376293
SH00005468,경안고등학교,4100000000,경기도,4127300000,안산시 단원구,4127310100,고잔동,경기도 안산시 단원구 고잔동 677,37.3257508,126.833832
SH00003786,경안고등학교,4700000000,경상북도,4717000000,안동시,4717012600,금곡동,경상북도 안동시 금곡동 127-8,36.5685045,128.7204749
SH00005765,경안여자고등학교,4700000000,경상북도,4717000000,안동시,4717013600,송현동,경상북도 안동시 송현동 599-1,36.5765071122,128.683387792
SH00006989,경원고등학교,2600000000,부산광역시,2623000000,부산진구,2623010900,당감동,부산광역시 부산진구 당감동 61-1,35.1637117556,129.031888904
SH00009639,경원고등학교,2700000000,대구광역시,2729000000,달서구,2729011100,용산동,대구광역시 달서구 용산동 6,35.8660906,128.5250714
SH00009698,경인고등학교,1100000000,서울특별시,1153000000,구로구,1153010600,고척동,서울특별시 구로구 고척동 66-28,37.4964171,126.8657015
SH00006147,경일고등학교,2600000000,부산광역시,2644000000,강서구,2644010400,명지동,부산광역시 강서구 명지동 299,35.1123339097,128.921871106
SH00003148,경일고등학교,1100000000,서울특별시,1120000000,성동구,1120011400,성수동1가,서울특별시 성동구 성수동1가 22-27,37.5435875,127.0480483
SH00005766,경일고등학교,4700000000,경상북도,4717000000,안동시,4717010500,신안동,경상북도 안동시 신안동 51,36.5756984,128.737831798
SH00000448,경일관광경영고등학교,4100000000,경기도,4127300000,안산시 단원구,4127310900,선부동,경기도 안산시 단원구 선부동 1053,37.3475629,126.8052791
SH00009254,경일여자고등학교,2700000000,대구광역시,2720000000,남구,2720010200,봉덕동,대구광역시 남구 봉덕동 1322-1,35.8371181,128.5974632
SH00002405,경주고등학교,4700000000,경상북도,4713000000,경주시,4713010500,황오동,경상북도 경주시 황오동 1-3,35.8431578554,129.2266104
SH00010527,경주공업고등학교,4700000000,경상북도,4713000000,경주시,4713010900,사정동,경상북도 경주시 사정동 70,35.836559945,129.206293032
SH00003773,경주디자인고등학교,4700000000,경상북도,4713000000,경주시,4713036029,현곡면,경상북도 경주시 현곡면 가정리 728-2,35.9000169,129.163340571
SH00006075,경주여자고등학교,4700000000,경상북도,4713000000,경주시,4713010800,성건동,경상북도 경주시 성건동 620-118,35.8577306194,129.205719804
SH00002406,경주여자정보고등학교,4700000000,경상북도,4713000000,경주시,4713013000,시래동,경상북도 경주시 시래동 729-1,35.773361883,129.2909378
SH00009008,경주정보고등학교,4700000000,경상북도,4713000000,경주시,4713011400,충효동,경상북도 경주시 충효동 549-6,35.8418250142,129.176298689
SH00003774,경주화랑고등학교,4700000000,경상북도,4713000000,경주시,4713031534,문무대왕면,경상북도 경주시 양북면 장항리 333,35.7943324,129.3876997
SH00003831,경진고등학교,4800000000,경상남도,4817000000,진주시,4817011400,상봉동,경상남도 진주시 상봉동 831-3,35.1994849,128.0670979
SH00002567,계양고등학교,2800000000,인천광역시,2824500000,계양구,2824510600,용종동,인천광역시 계양구 용종동 227-3,37.5416615,126.7436318
SH00001522,계원예술고등학교,4100000000,경기도,4113500000,성남시 분당구,4113510300,정자동,경기도 성남시 분당구 정자동 207,37.359204,127.1156087
SH00006062,고금고등학교,4600000000,전라남도,4689000000,완도군,4689033022,고금면,전라남도 완도군 고금면 덕암리 775,34.4009267,126.8046316
SH00009560,고려고등학교,2900000000,광주광역시,2917000000,북구,2917011600,삼각동,광주광역시 북구 삼각동 666,35.1932523,126.8971563
SH00004802,고려대학교사범대학부속고등학교,1100000000,서울특별시,1129000000,성북구,1129013300,정릉동,서울특별시 성북구 정릉동 660,37.6098005,127.0015719892
SH00009047,고령고등학교,4700000000,경상북도,4783000000,고령군,4783025325,대가야읍,경상북도 고령군 대가야읍 연조리 92,35.7356503935,128.270099111
SH00001550,고림고등학교,4100000000,경기도,4146100000,용인시 처인구,4146110600,고림동,경기도 용인시 처인구 고림동 650-1,37.2468286,127.2194167
SH00005142,고명경영고등학교,1100000000,서울특별시,1129000000,성북구,1129010300,돈암동,서울특별시 성북구 동선동4가 325-1,37.5975051,127.0199462
SH00005285,고산고등학교,5200000000,전북특별자치도,5271000000,완주군,5271036022,고산면,전라북도 완주군 고산면 서봉리 689,35.9800593,127.2020233
SH00009627,고색고등학교,4100000000,경기도,4111300000,수원시 권선구,4111312800,고색동,경기도 수원시 권선구 고색동 888-158,37.2538354,126.9823453
SH00006970,고성고등학교,5100000000,강원특별자치도,5182000000,고성군,5182025025,간성읍,강원특별자치도 고성군 간성읍 상리 361,38.3782820364,128.4610038697
SH00002401,고성고등학교,4800000000,경상남도,4882000000,고성군,4882040021,회화면,경상남도 고성군 회화면 배둔리 1182,35.0562124,128.3626083
SH00010529,고성중앙고등학교,4800000000,경상남도,4882000000,고성군,4882025023,고성읍,경상남도 고성군 고성읍 수남리 524,34.9664357674,128.32001249
SH00006122,고양고등학교,4100000000,경기도,4128100000,고양시 덕양구,4128111100,삼송동,경기도 고양시 덕양구 삼송동 45-2,37.6542382815,126.890869846
SH00001450,고양국제고등학교,4100000000,경기도,4128500000,고양시 일산동구,4128510100,식사동,경기도 고양시 일산동구 식사동 716-20,37.6843734,126.8088113
SH00007011,고양동산고등학교,4100000000,경기도,4128100000,고양시 덕양구,4128111200,동산동,경기도 고양시 덕양구 동산동 362,37.6446523992,126.8876033
SH00006135,고양예술고등학교,4100000000,경기도,4128700000,고양시 일산서구,4128710500,덕이동,경기도 고양시 일산서구 덕이동 753-11,37.6966567,126.7429287
SH00001466,고양외국어고등학교,4100000000,경기도,4128100000,고양시 덕양구,4128111800,관산동,경기도 고양시 덕양구 관산동 332,37.6906272,126.8592854
SH00007012,고양일고등학교,4100000000,경기도,4128100000,고양시 덕양구,4128111600,고양동,경기도 고양시 덕양구 고양동 248-17,37.6998017,126.9009723
SH00009232,고운고등학교,3600000000,세종특별자치시,3611000000,,3611011200,고운동,세종특별자치시 고운동 1415,36.5102286816,127.233075939
SH00000443,고잔고등학교,4100000000,경기도,4127300000,안산시 단원구,4127310100,고잔동,경기도 안산시 단원구 고잔동 776-1,37.3088326,126.8352308
SH00010536,고창고등학교,5200000000,전북특별자치도,5279000000,고창군,5279025022,고창읍,전라북도 고창군 고창읍 교촌리 269,35.4362394455,126.7022989857
SH00006089,고창북고등학교,5200000000,전북특별자치도,5279000000,고창군,5279040021,흥덕면,전라북도 고창군 흥덕면 흥덕리 157-1,35.5150195,126.6977991
SH00006088,고창여자고등학교,5200000000,전북특별자치도,5279000000,고창군,5279025037,고창읍,전라북도 고창군 고창읍 교촌리 29-5,35.4405699,126.6975367
SH00009966,고척고등학교,1100000000,서울특별시,1153000000,구로구,1153010600,고척동,서울특별시 구로구 고척동 287-29,37.5085758,126.8506504
SH00204833,고촌고등학교,4100000000,경기도,4157000000,김포시,4157025323,고촌읍,경기도 김포시 고촌읍 태리 290-2,37.6046055120949,126.74996142559
SH00009323,고한고등학교,5100000000,강원특별자치도,5177000000,정선군,5177025321,고한읍,강원특별자치도 정선군 고한읍 고한리 80-4,37.2063733,128.8526676
SH00009820,고흥고등학교,4600000000,전라남도,4677000000,고흥군,4677025025,고흥읍,전라남도 고흥군 고흥읍 호형리 1353-4,34.6066433,127.2937538
SH00002444,고흥도화고등학교,4600000000,전라남도,4677000000,고흥군,4677034027,도화면,전라남도 고흥군 도화면 당오리 480-3,34.5146241,127.3202929
SH00009048,고흥산업과학고등학교,4600000000,전라남도,4677000000,고흥군,4677025024,고흥읍,전라남도 고흥군 고흥읍 등암리 216,34.6022342,127.2759578
SH00009054,고흥영주고등학교,4600000000,전라남도,4677000000,고흥군,4677038026,과역면,전라남도 고흥군 과역면 과역리 442-2,34.6818294,127.3565977
SH00003816,곡성고등학교,4600000000,전라남도,4672000000,곡성군,4672025021,곡성읍,전라남도 곡성군 곡성읍 읍내리 446-1,35.2846944,127.2926362
SH00007531,곡정고등학교,4100000000,경기도,4111300000,수원시 권선구,4111313700,권선동,경기도 수원시 권선구 권선동 1338,37.2438427761,127.020151787
SH00005303,곤양고등학교,4800000000,경상남도,4824000000,사천시,4824035023,곤양면,경상남도 사천시 곤양면 서정리 50,35.0635767916,127.961313175
SH00006980,곤지암고등학교,4100000000,경기도,4161000000,광주시,4161025921,곤지암읍,경기도 광주시 곤지암읍 곤지암리 453-12,37.347549,127.3374172
SH00005475,공동체비전고등학교,4400000000,충청남도,4477000000,서천군,4477025325,서천읍,충청남도 서천군 서천읍 태월리 75-1,36.1004035,126.7131663
SH00006185,공주고등학교,4400000000,충청남도,4415000000,공주시,4415010300,중학동,충청남도 공주시 중학동 137-1,36.4474307,127.1233277
SH00000418,공주금성여자고등학교,4400000000,충청남도,4415000000,공주시,4415010700,웅진동,충청남도 공주시 웅진동 277,36.4583038,127.1121136
SH00004165,공주마이스터고등학교,4400000000,충청남도,4415000000,공주시,4415025021,유구읍,충청남도 공주시 유구읍 백교리 13-3,36.5477901,126.9487817
SH00006186,공주생명과학고등학교,4400000000,충청남도,4415000000,공주시,4415012000,신관동,충청남도 공주시 신관동 495-3,36.4734673808,127.1227024565
SH00007548,공주여자고등학교,4400000000,충청남도,4415000000,공주시,4415011000,금학동,충청남도 공주시 금학동 241,36.4400148,127.1198051
SH00004164,공주영명고등학교,4400000000,충청남도,4415000000,공주시,4415010400,중동,충청남도 공주시 중동 318,36.4512208,127.1268425
SH00009263,공주정보고등학교,4400000000,충청남도,4415000000,공주시,4415012100,금흥동,충청남도 공주시 금흥동 1-1,36.4849208,127.1574498
SH00008915,공항고등학교,1100000000,서울특별시,1150000000,강서구,1150010900,방화동,서울특별시 강서구 마곡동 733-3,37.5692927699,126.8063246405
SH00004173,경포고등학교,5100000000,강원특별자치도,5115000000,강릉시,5115011100,포남동,강원특별자치도 강릉시 포남동 21-7,37.7821633,128.9169751
SH00004526,경해여자고등학교,4800000000,경상남도,4817000000,진주시,4817012600,평거동,경상남도 진주시 평거동 695-7,35.1651726077,128.041709052
SH00011381,경혜여자고등학교,2600000000,부산광역시,2632000000,북구,2632010500,구포동,부산광역시 북구 구포동 117-3,35.2074075632106,129.007887026276
SH00000316,경화여자EnglishBusiness고등학교,4100000000,경기도,4161000000,광주시,4161010300,송정동,경기도 광주시 송정동 52-1,37.4182418054,127.2639935852
SH00000317,경화여자고등학교,4100000000,경기도,4161000000,광주시,4161010300,송정동,경기도 광주시 송정동 52-1,37.4182418054,127.2639935852
SH00002521,경화여자고등학교,2700000000,대구광역시,2729000000,달서구,2729010100,성당동,대구광역시 달서구 성당동 670-29,35.8479769,128.5482139
SH00004783,경희고등학교,1100000000,서울특별시,1123000000,동대문구,1123011000,이문동,서울특별시 동대문구 이문동 250-1,37.6044250879979,127.062430748659
SH00005594,경희여자고등학교,1100000000,서울특별시,1123000000,동대문구,1123011000,이문동,서울특별시 동대문구 회기동 1-5,37.5939495015,127.0548901682
SH00001524,계남고등학교,4100000000,경기도,4119200000,부천시 원미구,4119210800,중동,경기도 부천시 중동 1185-1,37.4964103,126.7718814
SH00004188,계룡고등학교,4400000000,충청남도,4425000000,계룡시,4425031024,두마면,충청남도 계룡시 두마면 농소리 778,36.268249,127.2580004
SH00006109,계룡디지텍고등학교,3000000000,대전광역시,3011000000,동구,3011011800,삼성동,대전광역시 동구 삼성동 104-1,36.3366462961795,127.433923202556
SH00002404,계림고등학교,4700000000,경상북도,4713000000,경주시,4713012400,황성동,경상북도 경주시 황성동 897-1,35.8663433997,129.208725982
SH00004535,계산고등학교,2800000000,인천광역시,2824500000,계양구,2824510200,계산동,인천광역시 계양구 계산동 907,37.5471273,126.729564
SH00006247,계산공업고등학교,2800000000,인천광역시,2824500000,계양구,2824510200,계산동,인천광역시 계양구 계산동 1084-6,37.534792,126.7395377
SH00002566,계산여자고등학교,2800000000,인천광역시,2824500000,계양구,2824510600,용종동,인천광역시 계양구 용종동 228-2,37.538793,126.7421147
SH00001484,계성고등학교,2700000000,대구광역시,2717000000,서구,2717010400,상리동,대구광역시 서구 상리동 산 119,35.8710035,128.5284483
SH00007297,계성고등학교,1100000000,서울특별시,1129000000,성북구,1129013400,길음동,서울특별시 성북구 길음동 1284-15,37.6075189,127.0204337
SH00007028,계성여자고등학교,2600000000,부산광역시,2647000000,연제구,2647010100,거제동,부산광역시 연제구 거제동 643-162,35.1833709745165,129.067491753125
SH00009609,경북공업고등학교,2700000000,대구광역시,2711000000,중구,2711015600,남산동,대구광역시 중구 남산동 2380-5,35.8580633,128.5838336
SH00010518,경북과학고등학교,4700000000,경상북도,4711300000,포항시 북구,4711311700,용흥동,경상북도 포항시 북구 용흥동 418-1,36.0468297513,129.351587178
SH00005291,경북과학기술고등학교,4700000000,경상북도,4715000000,김천시,4715025028,아포읍,경상북도 김천시 아포읍 국사리 757-1,36.1590905779,128.2432755
SH00009239,경북기계공업고등학교,2700000000,대구광역시,2729000000,달서구,2729011500,상인동,대구광역시 달서구 상인동 1-6,35.8229847,128.5415269
SH00201848,경북기계공업고등학교부설산업학교,2700000000,대구광역시,2729000000,달서구,2729011500,상인동,대구광역시 달서구 상인동 769-1,35.8203713859993,128.541358766766
SH00001903,경북기계금속고등학교,4700000000,경상북도,4729000000,경산시,4729033022,자인면,경상북도 경산시 자인면 북사리 275,35.8198913618,128.821772213
SH00004510,경북기계명장고등학교,4700000000,경상북도,4785000000,칠곡군,4785031036,지천면,경상북도 칠곡군 지천면 신리 597,35.9581106792974,128.483816486246
SH00009818,경북드론고등학교,4700000000,경상북도,4782000000,청도군,4782032033,풍각면,경상북도 청도군 풍각면 송서리 553-6,35.6409606029345,128.620765902912
SH00009796,경북생활과학고등학교,4700000000,경상북도,4719000000,구미시,4719034028,해평면,경상북도 구미시 해평면 월호리 488,36.1996019274,128.392202618
SH00001869,경북세무고등학교,4700000000,경상북도,4711300000,포항시 북구,4711334021,기계면,경상북도 포항시 북구 기계면 현내리 1089,36.0773892542565,129.196014431237
SH00005779,경북식품과학마이스터고등학교,4700000000,경상북도,4723000000,영천시,4723032026,신녕면,경상북도 영천시 신녕면 매양리 405,36.0430223785,128.780490897
SH00004127,경북여자고등학교,2700000000,대구광역시,2711000000,중구,2711015600,남산동,대구광역시 중구 남산동 714-2,35.8582044,128.5931026
SH00004151,경북여자상업고등학교,2700000000,대구광역시,2720000000,남구,2720010300,대명동,대구광역시 남구 대명동 1804-2,35.8550705,128.5883692
SH00009253,경북예술고등학교,2700000000,대구광역시,2720000000,남구,2720010300,대명동,대구광역시 남구 대명동 1804-1,35.8545867,128.5881693
SH00002416,경북외국어고등학교,4700000000,경상북도,4719000000,구미시,4719010800,남통동,경상북도 구미시 남통동 110,36.124503406,128.322088806
SH00203321,경북일고등학교,4700000000,경상북도,4790000000,예천군,4790025330,호명읍,경상북도 예천군 호명면 산합리 1395,36.5789964845,128.485283044
SH00009808,경북조리과학고등학교,4700000000,경상북도,4728000000,문경시,4728025023,문경읍,경상북도 문경시 문경읍 교촌리 160,36.7382346821931,128.114642397874
SH00005785,경북체육고등학교,4700000000,경상북도,4729000000,경산시,4729010700,옥곡동,경상북도 경산시 옥곡동 466-1,35.8122246623,128.738053137
SH00006406,경북하이텍고등학교,4700000000,경상북도,4717000000,안동시,4717013600,송현동,경상북도 안동시 송현동 273-1,36.5695593612,128.701842373
SH00009802,경북항공고등학교,4700000000,경상북도,4721000000,영주시,4721025028,풍기읍,경상북도 영주시 풍기읍 교촌리 147-1,36.8811778049,128.525755256
SH00001899,경산고등학교,4700000000,경상북도,4729000000,경산시,4729011600,계양동,경상북도 경산시 계양동 112-3,35.8252886147,128.747415689
SH00009809,경산과학고등학교,4700000000,경상북도,4729000000,경산시,4729012800,갑제동,경상북도 경산시 갑제동 440-6,35.8220201,128.768889539
SH00003806,경산여자고등학교,4700000000,경상북도,4729000000,경산시,4729010700,옥곡동,경상북도 경산시 옥곡동 7,35.8177628299,128.72994674
SH00003808,경산여자상업고등학교,4700000000,경상북도,4729000000,경산시,4729033021,자인면,경상북도 경산시 자인면 동부리 208-1,35.8159783078,128.827851799
SH00004153,경상고등학교,2700000000,대구광역시,2723000000,북구,2723011200,복현동,대구광역시 북구 복현동 105,35.9020291,128.6218289
SH00010574,경상고등학교,4800000000,경상남도,4812100000,창원시 의창구,4812110700,소계동,경상남도 창원시 의창구 소계동 473,35.2609619,128.6005322
SH00001503,경상공업고등학교,2700000000,대구광역시,2720000000,남구,2720010300,대명동,대구광역시 남구 대명동 3015-1,35.8457585,128.5750794
SH00009630,경상여자고등학교,2700000000,대구광역시,2723000000,북구,2723010600,침산동,대구광역시 북구 침산동 810-1,35.899984,128.5878231
SH00009955,경성고등학교,1100000000,서울특별시,1144000000,마포구,1144012400,연남동,서울특별시 마포구 연남동 369-1,37.5635098256,126.9191674115
SH00002488,구덕고등학교,2600000000,부산광역시,2653000000,사상구,2653010700,학장동,부산광역시 사상구 학장동 180-9,35.1384267724,128.990748185
SH00010567,구례고등학교,4600000000,전라남도,4673000000,구례군,4673025022,구례읍,전라남도 구례군 구례읍 봉남리 54,35.2047621,127.4632973
SH00009967,구로고등학교,1100000000,서울특별시,1153000000,구로구,1153010200,구로동,서울특별시 구로구 구로동 105-1,37.4984981,126.8896924
SH00006142,구리고등학교,4100000000,경기도,4131000000,구리시,4131010500,수택동,경기도 구리시 수택동 785,37.5886437,127.140528
SH00000371,구리여자고등학교,4100000000,경기도,4131000000,구리시,4131010700,토평동,경기도 구리시 토평동 214,37.5912494,127.1513222
SH00001922,구림공업고등학교,4600000000,전라남도,4683000000,영암군,4683036028,군서면,전라남도 영암군 군서면 동구림리 414-1,34.7598911695,126.6263374326
SH00001884,구미고등학교,4700000000,경상북도,4719000000,구미시,4719010300,도량동,경상북도 구미시 도량동 600,36.1377765728,128.332714305
SH00204782,구미산동고등학교,4700000000,경상북도,4719000000,구미시,4719025628,산동읍,경상북도 구미시 산동면 인덕리 1119,36.1586859309443,128.43617061432
SH00009024,구미여자고등학교,4700000000,경상북도,4719000000,구미시,4719010300,도량동,경상북도 구미시 도량동 682,36.1444646,128.331689487
SH00009791,구미여자상업고등학교,4700000000,경상북도,4719000000,구미시,4719010900,형곡동,경상북도 구미시 형곡동 198,36.1075695939,128.342145062
SH00001885,구미정보고등학교,4700000000,경상북도,4719000000,구미시,4719012100,황상동,경상북도 구미시 황상동 산 40-3,36.1185518,128.43422858
SH00005270,구산고등학교,4800000000,경상남도,4825000000,김해시,4825010600,구산동,경상남도 김해시 구산동 396,35.2500241401,128.875939332
SH00000450,구성고등학교,4100000000,경기도,4146300000,용인시 기흥구,4146311300,마북동,경기도 용인시 기흥구 마북동 545-8,37.2994202,127.1155106
SH00001505,구암고등학교,2700000000,대구광역시,2723000000,북구,2723012300,구암동,대구광역시 북구 구암동 672,35.9258366,128.5530426
SH00002350,구암고등학교,1100000000,서울특별시,1162000000,관악구,1162010100,봉천동,서울특별시 관악구 봉천동 1712-25,37.4924558,126.9502242
SH00009985,구일고등학교,1100000000,서울특별시,1153000000,구로구,1153010200,구로동,서울특별시 구로구 구로동 685-194,37.4941106,126.873852
SH00001546,과천고등학교,4100000000,경기도,4129000000,과천시,4129010900,별양동,경기도 과천시 별양동 5,37.430267,126.9969934
SH00005466,과천여자고등학교,4100000000,경기도,4129000000,과천시,4129010700,중앙동,경기도 과천시 중앙동 11-4,37.4320673,126.9884238
SH00009293,과천외국어고등학교,4100000000,경기도,4129000000,과천시,4129010700,중앙동,경기도 과천시 중앙동 11-4,37.4320673,126.9884238
SH00009669,과천중앙고등학교,4100000000,경기도,4129000000,과천시,4129010300,갈현동,경기도 과천시 갈현동 648,37.422723,126.9863905
SH00003243,관악고등학교,1100000000,서울특별시,1156000000,영등포구,1156012600,양평동2가,서울특별시 영등포구 양평동2가 12-1,37.5214463,126.8829505
SH00004182,관양고등학교,4100000000,경기도,4117300000,안양시 동안구,4117310200,관양동,경기도 안양시 동안구 관양동 523-4,37.40864,126.9602128
SH00004138,관인고등학교,4100000000,경기도,4165000000,포천시,4165040024,관인면,경기도 포천시 관인면 탄동리 607-3,38.1580490773,127.2505873531
SH00006178,광교고등학교,4100000000,경기도,4111700000,수원시 영통구,4111710300,이의동,경기도 수원시 영통구 이의동 1346,37.2888873,127.0480197
SH00006979,광남고등학교,4100000000,경기도,4161000000,광주시,4161011100,장지동,경기도 광주시 장지동 229-19,37.3848285,127.2377989
SH00009807,광남고등학교,4600000000,전라남도,4617000000,나주시,4617025024,남평읍,전라남도 나주시 남평읍 교촌리 37,35.0387794,126.8444483
SH00006664,광남고등학교,1100000000,서울특별시,1121500000,광진구,1121510400,광장동,서울특별시 광진구 광장동 554-11,37.5413411,127.101751
SH00000444,광덕고등학교,4100000000,경기도,4127100000,안산시 상록구,4127110900,월피동,경기도 안산시 상록구 월피동 236-37,37.3397157,126.8457207
SH00000298,광덕고등학교,2900000000,광주광역시,2914000000,서구,2914011900,화정동,광주광역시 서구 화정동 652,35.1448183,126.8787713
SH00006141,광동고등학교,4100000000,경기도,4136000000,남양주시,4136025321,진접읍,경기도 남양주시 진접읍 장현리 603-5,37.7167035,127.1751459
SH00000309,광명경영회계고등학교,4100000000,경기도,4121000000,광명시,4121010400,소하동,경기도 광명시 소하동 883-13,37.4380029,126.8816864
SH00001426,광명고등학교,2600000000,부산광역시,2620000000,영도구,2620012100,동삼동,부산광역시 영도구 동삼동 226-118,35.0836647486,129.06460595
SH00006831,광명고등학교,4100000000,경기도,4121000000,광명시,4121010200,철산동,경기도 광명시 철산동 234,37.4784734,126.8659768
SH00000310,광문고등학교,4100000000,경기도,4121000000,광명시,4121010100,광명동,경기도 광명시 광명동 492-1,37.4649266,126.8497872
SH00006581,광문고등학교,1100000000,서울특별시,1174000000,강동구,1174010200,고덕동,서울특별시 강동구 고덕동 295,37.5602563,127.1585555
SH00005176,광성고등학교,1100000000,서울특별시,1144000000,마포구,1144011100,신수동,서울특별시 마포구 신수동 91-20,37.5486226,126.9363687
SH00000428,광성고등학교,2800000000,인천광역시,2811000000,중구,2811013200,도원동,인천광역시 중구 도원동 12-73,37.4674701,126.639959
SH00008946,광신고등학교,1100000000,서울특별시,1162000000,관악구,1162010200,신림동,서울특별시 관악구 신림동 92-328,37.4651377,126.9256312
SH00003257,광신방송예술고등학교,1100000000,서울특별시,1162000000,관악구,1162010200,신림동,서울특별시 관악구 신림동 92-328,37.4793219202177,126.934886136416
SH00003151,광양고등학교,1100000000,서울특별시,1121500000,광진구,1121510500,자양동,서울특별시 광진구 자양동 668,37.5293846,127.0855989
SH00009813,광양고등학교,4600000000,전라남도,4623000000,광양시,4623031021,봉강면,전라남도 광양시 봉강면 석사리 75,34.9837156,127.5722046
SH00009042,광양백운고등학교,4600000000,전라남도,4623000000,광양시,4623010600,중동,전라남도 광양시 중동 1448,34.946708,127.6907689
SH00002441,광양여자고등학교,4600000000,전라남도,4623000000,광양시,4623025023,광양읍,전라남도 광양시 광양읍 칠성리 753,34.9758092,127.5808023
SH00006420,광양제철고등학교,4600000000,전라남도,4623000000,광양시,4623011000,금호동,전라남도 광양시 금호동 678,34.9466534,127.7276589
SH00003810,광양하이텍고등학교,4600000000,전라남도,4623000000,광양시,4623025021,광양읍,전라남도 광양시 광양읍 목성리 1018,34.9807104,127.5916621
SH00009694,광영고등학교,1100000000,서울특별시,1147000000,양천구,1147010300,신월동,서울특별시 양천구 신월동 43-3,37.53779,126.8241065
SH00001905,광영고등학교,4600000000,전라남도,4623000000,광양시,4623010800,광영동,전라남도 광양시 광영동 410,34.9619792,127.714492
SH00001759,광영여자고등학교,1100000000,서울특별시,1147000000,양천구,1147010300,신월동,서울특별시 양천구 신월동 43-3,37.53779,126.8241074
SH00007309,광운전자공업고등학교,1100000000,서울특별시,1135000000,노원구,1135010200,월계동,서울특별시 노원구 월계동 500-32,37.6212377291597,127.057441650067
SH00006102,광일고등학교,2900000000,광주광역시,2920000000,광산구,2920013400,임곡동,광주광역시 광산구 임곡동 783-1,35.2209245,126.7417766
SH00009561,광주경신여자고등학교,2900000000,광주광역시,2917000000,북구,2917010600,신안동,광주광역시 북구 용봉동 718-1,35.1693675,126.8945721
SH00004075,광주고등학교,4100000000,경기도,4161000000,광주시,4161010300,송정동,경기도 광주시 송정동 35,37.4178889,127.2651799
SH00001590,광주고등학교,2900000000,광주광역시,2911000000,동구,2911010900,계림동,광주광역시 동구 계림동 239-1,35.1591189,126.9219958
SH00011333,광주공업고등학교,2900000000,광주광역시,2917000000,북구,2917011700,매곡동,광주광역시 북구 매곡동 5-10,35.1893378,126.8963769
SH00006976,광주과학고등학교,2900000000,광주광역시,2917000000,북구,2917014100,오룡동,광주광역시 북구 오룡동 1-5,35.2280097,126.848407
SH00011331,광주대동고등학교,2900000000,광주광역시,2914000000,서구,2914013200,매월동,광주광역시 서구 매월동 산 68-4,35.1194811,126.8497001
SH00000300,광주동성고등학교,2900000000,광주광역시,2915500000,남구,2915510800,진월동,광주광역시 남구 진월동 406,35.1160937,126.8951507
SH00006838,광주동신고등학교,2900000000,광주광역시,2917000000,북구,2917011100,풍향동,광주광역시 북구 풍향동 475,35.1694138,126.9230334
SH00001418,광주동신여자고등학교,2900000000,광주광역시,2917000000,북구,2917011100,풍향동,광주광역시 북구 풍향동 475,35.1694138,126.9230334
SH00000299,광주서석고등학교,2900000000,광주광역시,2914000000,서구,2914011900,화정동,광주광역시 서구 화정동 525,35.1491655,126.8818746
SH00007170,광주석산고등학교,2900000000,광주광역시,2915500000,남구,2915510500,백운동,광주광역시 남구 백운동 432-2,35.1391151,126.9086714
SH00006099,광주소프트웨어마이스터고등학교,2900000000,광주광역시,2920000000,광산구,2920010100,송정동,광주광역시 광산구 송정동 710-3,35.1429219,126.8005143
SH00004064,광주수피아여자고등학교,2900000000,광주광역시,2915500000,남구,2915511300,양림동,광주광역시 남구 양림동 242,35.137275,126.9115456
SH00011339,광주숭일고등학교,2900000000,광주광역시,2917000000,북구,2917012700,일곡동,광주광역시 북구 일곡동 46-24,35.2179557,126.896697
SH00006575,광주여자고등학교,2900000000,광주광역시,2914000000,서구,2914011900,화정동,광주광역시 서구 화정동 325-7,35.1479745,126.8733586
SH00006826,광주여자상업고등학교,2900000000,광주광역시,2915500000,남구,2915510800,진월동,광주광역시 남구 진월동 406,35.1160937,126.8951507
SH00007185,광주예술고등학교,2900000000,광주광역시,2917000000,북구,2917010900,운암동,광주광역시 북구 운암동 1056-1,35.1837781,126.8747374
SH00007171,광주인성고등학교,2900000000,광주광역시,2915500000,남구,2915511000,행암동,광주광역시 남구 행암동 360-7,35.1026604,126.8819879
SH00011348,광주자동화설비공업고등학교,2900000000,광주광역시,2920000000,광산구,2920010900,우산동,광주광역시 광산구 우산동 1084,35.1498589,126.8132937
SH00001417,광주자연과학고등학교,2900000000,광주광역시,2917000000,북구,2917011500,오치동,광주광역시 북구 오치동 930-5,35.1903412,126.9176746
SH00000323,광주전자공업고등학교,2900000000,광주광역시,2920000000,광산구,2920011500,월계동,광주광역시 광산구 월계동 864-2,35.2054474,126.841779
SH00006977,광주제일고등학교,2900000000,광주광역시,2917000000,북구,2917010300,누문동,광주광역시 북구 누문동 144-35,35.1531011,126.9069877
SH00007187,광주중앙고등학교,4100000000,경기도,4161000000,광주시,4161011200,역동,경기도 광주시 역동 30-1,37.4030238,127.2582821
SH00009570,광주진흥고등학교,2900000000,광주광역시,2920000000,광산구,2920011800,신창동,광주광역시 광산구 신창동 638-5,35.1959082,126.8428214
SH00006837,광주체육고등학교,2900000000,광주광역시,2917000000,북구,2917010900,운암동,광주광역시 북구 운암동 184,35.1819597,126.8796602
SH00002465,광천고등학교,4400000000,충청남도,4480000000,홍성군,4480025321,광천읍,충청남도 홍성군 광천읍 신진리 367,36.5079323736,126.6219157629
SH00007039,광탄고등학교,4100000000,경기도,4148000000,파주시,4148035027,광탄면,경기도 파주시 광탄면 신산리 232-1,37.7834382248,126.8489184061
SH00004126,광혜원고등학교,4300000000,충청북도,4375000000,진천군,4375037027,광혜원면,충청북도 진천군 광혜원면 광혜원리 1090,36.9942960944,127.428050105
SH00006832,광휘고등학교,4100000000,경기도,4121000000,광명시,4121010400,소하동,경기도 광명시 소하동 1390,37.4297435,126.8828156
SH00006158,괴산고등학교,4300000000,충청북도,4376000000,괴산군,4376025030,괴산읍,충청북도 괴산군 괴산읍 대사리 201,36.7963335,127.7804672
SH00002570,교동고등학교,2800000000,인천광역시,2871000000,강화군,2871040021,교동면,인천광역시 강화군 교동면 대룡리 723-7,37.7780703,126.2843139
SH00001478,교하고등학교,4100000000,경기도,4148000000,파주시,4148011300,동패동,경기도 파주시 동패동 1707,37.7225642,126.7219216
SH00006836,군산상업고등학교,5200000000,전북특별자치도,5213000000,군산시,5213011000,문화동,전라북도 군산시 문화동 785-3,35.9745678,126.6991491
SH00004069,군산여자고등학교,5200000000,전북특별자치도,5213000000,군산시,5213010400,월명동,전라북도 군산시 월명동 37-1,35.9850793,126.7035075
SH00007184,군산여자상업고등학교,5200000000,전북특별자치도,5213000000,군산시,5213014300,지곡동,전라북도 군산시 지곡동 518,35.9573264,126.7078521
SH00006974,군산영광여자고등학교,5200000000,전북특별자치도,5213000000,군산시,5213012100,중앙로2가,전라북도 군산시 중앙로2가 135-2,35.982616,126.7148260111
SH00004071,군산제일고등학교,5200000000,전북특별자치도,5213000000,군산시,5213013400,조촌동,전라북도 군산시 조촌동 84,35.9733353,126.7482485
SH00004072,군산중앙고등학교,5200000000,전북특별자치도,5213000000,군산시,5213037024,성산면,전라북도 군산시 성산면 도암리 608-9,36.0003325,126.7846445
SH00006975,군산중앙여자고등학교,5200000000,전북특별자치도,5213000000,군산시,5213014100,수송동,전라북도 군산시 수송동 752-1,35.9681727,126.7114926
SH00004672,군서고등학교,4100000000,경기도,4139000000,시흥시,4139013200,정왕동,경기도 시흥시 정왕동 1808-1,37.348865,126.7425603
SH00001904,군위고등학교,2700000000,대구광역시,2772000000,군위군,2772025032,군위읍,대구광역시 군위군 군위읍 정리 291,36.24578,128.571167468
SH00002561,군자디지털과학고등학교,4100000000,경기도,4139000000,시흥시,4139012700,거모동,경기도 시흥시 거모동 1426,37.3497905376317,126.786074913362
SH00005479,군포e비즈니스고등학교,4100000000,경기도,4141000000,군포시,4141010400,산본동,경기도 군포시 산본동 1149-6,37.3630288,126.9184562
SH00006878,금곡고등학교,4100000000,경기도,4136000000,남양주시,4136010300,금곡동,경기도 남양주시 금곡동 152-18,37.63315,127.213572
SH00204824,금곡무지개고등학교,4800000000,경상남도,4825000000,김해시,4825034032,한림면,경상남도 김해시 한림면 금곡리 851-3,35.3448191529788,128.812186472852
SH00010534,금남고등학교,4800000000,경상남도,4885000000,하동군,4885036027,금남면,경상남도 하동군 금남면 덕천리 1243-1,34.9860221701,127.839806702
SH00001458,금명여자고등학교,2600000000,부산광역시,2632000000,북구,2632010200,화명동,부산광역시 북구 화명동 307,35.2442896483,129.024600295
SH00005459,금산고등학교,4400000000,충청남도,4471000000,금산군,4471025022,금산읍,충청남도 금산군 금산읍 중도리 166,36.1067927,127.4953113
SH00002540,금산산업고등학교,4400000000,충청남도,4471000000,금산군,4471025025,금산읍,충청남도 금산군 금산읍 아인리 107,36.1040357,127.4791469
SH00001540,금산여자고등학교,4400000000,충청남도,4471000000,금산군,4471025025,금산읍,충청남도 금산군 금산읍 아인리 9-1,36.1058626,127.4837398
SH00005460,금산하이텍고등학교,4400000000,충청남도,4471000000,금산군,4471037028,진산면,충청남도 금산군 진산면 읍내리 172,36.1421698,127.3740893
SH00006415,금성고등학교,4600000000,전라남도,4617000000,나주시,4617010800,경현동,전라남도 나주시 대호동 1064,35.0376431,126.7124913
SH00005789,금성고등학교,4700000000,경상북도,4773000000,의성군,4773037036,금성면,경상북도 의성군 금성면 탑리리 582,36.2545039889,128.689410257
SH00002589,금성고등학교,2600000000,부산광역시,2617000000,동구,2617010300,좌천동,부산광역시 동구 좌천동 784-1,35.1355024611,129.0519793
SH00002423,금오고등학교,4700000000,경상북도,4719000000,구미시,4719011400,광평동,경상북도 구미시 광평동 299-3,36.1089496601,128.355632595
SH00003792,금오공업고등학교,4700000000,경상북도,4719000000,구미시,4719011300,공단동,경상북도 구미시 공단동 111,36.1181486069728,128.367039460021
SH00003796,금오여자고등학교,4700000000,경상북도,4719000000,구미시,4719010200,지산동,경상북도 구미시 지산동 산 15,36.1417147904,128.345104046
SH00009957,금옥여자고등학교,1100000000,서울특별시,1147000000,양천구,1147010100,신정동,서울특별시 양천구 신정동 729,37.5106219,126.8442611
SH00005762,금정고등학교,2600000000,부산광역시,2626000000,동래구,2626010100,명장동,부산광역시 동래구 명장동 432,35.2077149353,129.107080525
SH00006116,금정여자고등학교,2600000000,부산광역시,2641000000,금정구,2641011000,서동,부산광역시 금정구 서동 461-2,35.2202611535,129.101145524
SH00001446,금정전자공업고등학교,2600000000,부산광역시,2641000000,금정구,2641011000,서동,부산광역시 금정구 서동 76-2,35.2217328982,129.107302384
SH00003241,금천고등학교,1100000000,서울특별시,1154500000,금천구,1154510300,시흥동,서울특별시 금천구 시흥동 산 24-4,37.444959,126.9055327
SH00003814,금천고등학교,4700000000,경상북도,4782000000,청도군,4782036031,금천면,경상북도 청도군 금천면 동곡리 1035,35.6880755163,128.8947261
SH00001435,금천고등학교,4300000000,충청북도,4311100000,청주시 상당구,4311112000,금천동,충청북도 청주시 상당구 금천동 4-6,36.6277961623,127.511944914
SH00001479,금촌고등학교,4100000000,경기도,4148000000,파주시,4148012300,금릉동,경기도 파주시 금릉동 451,37.750144,126.7786441
SH00011341,금파공업고등학교,2900000000,광주광역시,2917000000,북구,2917010900,운암동,광주광역시 북구 운암동 133,35.1769049,126.8870993
SH00201204,금호고등학교,1100000000,서울특별시,1120000000,성동구,1120010900,금호동1가,서울특별시 성동구 금호동1가 1822,37.5536205982,127.023435367
SH00006978,금호고등학교,2900000000,광주광역시,2917000000,북구,2917010900,운암동,광주광역시 북구 운암동 140,35.1774514,126.8849826
SH00005778,금호공업고등학교,4700000000,경상북도,4723000000,영천시,4723025021,금호읍,경상북도 영천시 금호읍 교대리 172-1,35.9323949,128.873668262
SH00001419,금호중앙여자고등학교,2900000000,광주광역시,2917000000,북구,2917010900,운암동,광주광역시 북구 운암동 140,35.1774713,126.8849826
SH00007180,기린고등학교,5100000000,강원특별자치도,5181000000,인제군,5181033021,기린면,강원특별자치도 인제군 기린면 현리 765-2,37.9469758,128.3124217
SH00001473,기장고등학교,2600000000,부산광역시,2671000000,기장군,2671025026,기장읍,부산광역시 기장군 기장읍 대라리 374-1,35.2401506941,129.209024024
SH00009672,기흥고등학교,4100000000,경기도,4146300000,용인시 기흥구,4146310100,신갈동,경기도 용인시 기흥구 신갈동 16-1,37.2823909,127.1086645
SH00002415,길원여자고등학교,4700000000,경상북도,4717000000,안동시,4717013200,안막동,경상북도 안동시 안막동 73-1,36.5793651,128.735121513
SH00001865,김제고등학교,5200000000,전북특별자치도,5221000000,김제시,5221010200,신풍동,전라북도 김제시 신풍동 345-1,35.7916034,126.8956483
SH00010151,군포고등학교,4100000000,경기도,4141000000,군포시,4141010500,금정동,경기도 군포시 금정동 870-4,37.3574248764541,126.940234759362
SH00001570,군포중앙고등학교,4100000000,경기도,4141000000,군포시,4141010300,부곡동,경기도 군포시 부곡동 1094,37.3238073049977,126.937201690572
SH00007532,권선고등학교,4100000000,경기도,4111300000,수원시 권선구,4111313700,권선동,경기도 수원시 권선구 권선동 1243,37.2525717,127.0334439
SH00009281,근명고등학교,4100000000,경기도,4117100000,안양시 만안구,4117110100,안양동,경기도 안양시 만안구 안양동 708-197,37.3922631389223,126.918825522747
SH00006083,근화여자고등학교,4700000000,경상북도,4713000000,경주시,4713012500,용강동,경상북도 경주시 용강동 870,35.8719052066,129.227230769
SH00009590,금곡고등학교,2600000000,부산광역시,2632000000,북구,2632010100,금곡동,부산광역시 북구 금곡동 1892,35.2443532,129.011948283
SH00009986,구현고등학교,1100000000,서울특별시,1153000000,구로구,1153010200,구로동,서울특별시 구로구 구로동 620-30,37.5022028,126.8744458
SH00006126,국원고등학교,4300000000,충청북도,4313000000,충주시,4313011600,칠금동,충청북도 충주시 봉방동 72,36.9794933703,127.921400439
SH00011340,국제고등학교,2900000000,광주광역시,2917000000,북구,2917011600,삼각동,광주광역시 북구 삼각동 479-1,35.1991166,126.8969507
SH00006079,군북고등학교,4800000000,경상남도,4873000000,함안군,4873032021,군북면,경상남도 함안군 군북면 덕대리 267,35.2595991782,128.343534963
SH00006972,군산고등학교,5200000000,전북특별자치도,5213000000,군산시,5213013200,동흥남동,전라북도 군산시 동흥남동 402-30,35.9747897,126.720286
SH00006973,군산기계공업고등학교,5200000000,전북특별자치도,5213000000,군산시,5213010900,송풍동,전라북도 군산시 문화동 751,35.976797,126.7000184
SH00000314,군산동고등학교,5200000000,전북특별자치도,5213000000,군산시,5213013900,개정동,전라북도 군산시 개정동 171,35.970574,126.7672364
SH00011343,남한고등학교,4100000000,경기도,4145000000,하남시,4145010800,덕풍동,경기도 하남시 덕풍동 450,37.5365221,127.2030129
SH00010532,남해고등학교,4800000000,경상남도,4884000000,남해군,4884031024,이동면,경상남도 남해군 이동면 무림리 1315,34.8026408369,127.951542173
SH00205235,남해보물섬고등학교,4800000000,경상남도,4884000000,남해군,4884039025,창선면,경남 남해군 창선면 율도리 546,34.8975564816837,127.99379679215
SH00003776,남해정보산업고등학교,4800000000,경상남도,4884000000,남해군,4884037027,고현면,경상남도 남해군 고현면 대사리 741,34.8969588,127.8743425
SH00006086,남해제일고등학교,4800000000,경상남도,4884000000,남해군,4884025021,남해읍,경상남도 남해군 남해읍 북변리 356,34.83926441,127.902439299
SH00001874,남해해성고등학교,4800000000,경상남도,4884000000,남해군,4884035026,남면,경상남도 남해군 남면 평산리 271,34.773197,127.8608149
SH00001576,내면고등학교,5100000000,강원특별자치도,5172000000,홍천군,5172039021,내면,강원특별자치도 홍천군 내면 창촌리 1655-3,37.7663982,128.3875
SH00001445,내성고등학교,2600000000,부산광역시,2641000000,금정구,2641010900,부곡동,부산광역시 금정구 부곡동 812-13,35.2213812545,129.092670328
SH00204901,노비따스음악중고등학교,4100000000,경기도,4182000000,가평군,4182031027,설악면,경기도 가평군 설악면 위곡리 328-21,37.6423949144309,127.521720246714
SH00003184,노원고등학교,1100000000,서울특별시,1135000000,노원구,1135010500,상계동,서울특별시 노원구 상계동 664,37.6624531,127.0531016
SH00001850,노화고등학교,4600000000,전라남도,4689000000,완도군,4689025621,노화읍,전라남도 완도군 노화읍 이포리 255-18,34.1815907,126.5773799
SH00001866,김제농생명마이스터고등학교,5200000000,전북특별자치도,5221000000,김제시,5221010200,신풍동,전라북도 김제시 신풍동 436-1,35.7923204379807,126.890461247065
SH00005284,김제서고등학교,5200000000,전북특별자치도,5221000000,김제시,5221032021,죽산면,전라북도 김제시 죽산면 죽산리 600-25,35.7707837,126.8146195
SH00002396,김제여자고등학교,5200000000,전북특별자치도,5221000000,김제시,5221010100,요촌동,전라북도 김제시 신풍동 129-9,35.8007028,126.8955434
SH00003782,김천고등학교,4700000000,경상북도,4715000000,김천시,4715011400,부곡동,경상북도 김천시 부곡동 777-1,36.1224253174,128.092700046
SH00005287,김천생명과학고등학교,4700000000,경상북도,4715000000,김천시,4715010900,교동,경상북도 김천시 교동 581,36.1358620141,128.099947465
SH00006092,김천여자고등학교,4700000000,경상북도,4715000000,김천시,4715010300,모암동,경상북도 김천시 모암동 104-1,36.1274349615,128.121646364
SH00006093,김천예술고등학교,4700000000,경상북도,4715000000,김천시,4715010900,교동,경상북도 김천시 교동 527-1,36.1379457007,128.096781403
SH00009015,김천중앙고등학교,4700000000,경상북도,4715000000,김천시,4715011900,양천동,경상북도 김천시 양천동 1153,36.0864255296,128.104489739
SH00009563,김포고등학교,4100000000,경기도,4157000000,김포시,4157010600,사우동,경기도 김포시 사우동 216,37.6187047,126.7127704
SH00006844,김포외국어고등학교,4100000000,경기도,4157000000,김포시,4157035023,월곶면,경기도 김포시 월곶면 갈산리 465-33,37.701307,126.5675834
SH00007190,김포제일고등학교,4100000000,경기도,4157000000,김포시,4157010300,운양동,경기도 김포시 운양동 1300-1,37.6530730031,126.677469727
SH00006841,김포제일공업고등학교,4100000000,경기도,4157000000,김포시,4157010100,북변동,경기도 김포시 북변동 477,37.6206416223,126.7095162558
SH00009764,김해가야고등학교,4800000000,경상남도,4825000000,김해시,4825010800,내동,경상남도 김해시 내동 1146-4,35.2362283718,128.871078544
SH00009765,김해건설공업고등학교,4800000000,경상남도,4825000000,김해시,4825010500,대성동,경상남도 김해시 구산동 180,35.239904563,128.875776495
SH00006063,김해경원고등학교,4800000000,경상남도,4825000000,김해시,4825010900,외동,경상남도 김해시 외동 1249-1,35.2318580706,128.861817974
SH00003752,김해고등학교,4800000000,경상남도,4825000000,김해시,4825011700,삼정동,경상남도 김해시 삼정동 267-34,35.2313945426,128.896079809
SH00005273,김해대청고등학교,4800000000,경상남도,4825000000,김해시,4825012900,대청동,경상남도 김해시 대청동 320-4,35.1879203073,128.800517187
SH00001852,김해분성고등학교,4800000000,경상남도,4825000000,김해시,4825010700,삼계동,경상남도 김해시 삼계동 1442-5,35.2654774517,128.874555083
SH00009766,김해분성여자고등학교,4800000000,경상남도,4825000000,김해시,4825010700,삼계동,경상남도 김해시 삼계동 1442-3,35.2666235646,128.873869461
SH00008990,김해삼문고등학교,4800000000,경상남도,4825000000,김해시,4825012800,삼문동,경상남도 김해시 삼문동 67-6,35.1986101914,128.7967846
SH00005271,김해삼방고등학교,4800000000,경상남도,4825000000,김해시,4825011900,삼방동,경상남도 김해시 삼방동 768,35.2553433729,128.90302733
SH00003753,김해생명과학고등학교,4800000000,경상남도,4825000000,김해시,4825010900,외동,경상남도 김해시 외동 743,35.2372395904,128.855271393
SH00201164,김해수남고등학교,4800000000,경상남도,4825000000,김해시,4825013100,율하동,경상남도 김해시 율하동 1402,35.1682301491,128.816729766
SH00010514,김해여자고등학교,4800000000,경상남도,4825000000,김해시,4825010500,대성동,경상남도 김해시 대성동 217-6,35.2397984841,128.879592258
SH00006064,김해영운고등학교,4800000000,경상남도,4825000000,김해시,4825011900,삼방동,경상남도 김해시 삼방동 755,35.2546737828,128.9057183
SH00003754,김해외국어고등학교,4800000000,경상남도,4825000000,김해시,4825013100,율하동,경상남도 김해시 율하동 262,35.1708261,128.8046623
SH00006066,김해율하고등학교,4800000000,경상남도,4825000000,김해시,4825013100,율하동,경상남도 김해시 율하동 1292,35.1740824944,128.806977416
SH00002386,김해임호고등학교,4800000000,경상남도,4825000000,김해시,4825010900,외동,경상남도 김해시 외동 715-2,35.2382699907,128.852720139
SH00009767,김해제일고등학교,4800000000,경상남도,4825000000,김해시,4825010900,외동,경상남도 김해시 외동 794,35.2396257012,128.853875795
SH00005272,김해중앙여자고등학교,4800000000,경상남도,4825000000,김해시,4825010300,부원동,경상남도 김해시 부원동 29,35.2324985645879,128.887642525883
SH00002387,김해한일여자고등학교,4800000000,경상남도,4825000000,김해시,4825012000,안동,경상남도 김해시 안동 333-3,35.2392419433,128.916675805
SH00009548,김화고등학교,5100000000,강원특별자치도,5178000000,철원군,5178031022,서면,강원특별자치도 철원군 서면 와수리 589-3,38.2436093,127.4339034
SH00011328,김화공업고등학교,5100000000,강원특별자치도,5178000000,철원군,5178031022,서면,강원특별자치도 철원군 서면 와수리 589-5,38.2434057606,127.4349464
SH00006570,나루고등학교,4100000000,경기도,4159000000,화성시,4159012700,반송동,경기도 화성시 반송동 17-9,37.1862211,127.0719149
SH00009806,나주고등학교,4600000000,전라남도,4617000000,나주시,4617010500,교동,전라남도 나주시 교동 118,35.0305147,126.711043
SH00003803,나주공업고등학교,4600000000,전라남도,4617000000,나주시,4617011600,대호동,전라남도 나주시 대호동 874,35.0401455,126.7139769
SH00010558,나주상업고등학교,4600000000,전라남도,4617000000,나주시,4617011900,청동,전라남도 나주시 청동 88-1,35.041747,126.7223652
SH00001459,낙동고등학교,2600000000,부산광역시,2632000000,북구,2632010400,덕천동,부산광역시 북구 덕천동 297-1,35.2170643,129.009600638
SH00001523,낙생고등학교,4100000000,경기도,4113500000,성남시 분당구,4113510800,판교동,경기도 성남시 분당구 판교동 649,37.3863988,127.1006001
SH00002352,남강고등학교,1100000000,서울특별시,1162000000,관악구,1162010200,신림동,서울특별시 관악구 신림동 627-1,37.4719974,126.9247473
SH00009792,남녕고등학교,5000000000,제주특별자치도,5011000000,제주시,5011013700,연동,제주특별자치도 제주시 연동 2288,33.4898507,126.4825173
SH00004095,남대전고등학교,3000000000,대전광역시,3014000000,중구,3014011000,대사동,대전광역시 중구 대사동 247-183,36.3107358,127.4275922
SH00000381,남목고등학교,3100000000,울산광역시,3117000000,동구,3117010800,서부동,울산광역시 동구 서부동 728,35.5380691,129.4187896
SH00006117,남산고등학교,2600000000,부산광역시,2641000000,금정구,2641010400,남산동,부산광역시 금정구 남산동 982,35.2680837382,129.085902721
SH00011346,남성고등학교,5200000000,전북특별자치도,5214000000,익산시,5214011300,남중동,전라북도 익산시 신동 156-4,35.9425076,126.9562172
SH00005507,남성여자고등학교,2600000000,부산광역시,2611000000,중구,2611011600,대청동1가,부산광역시 중구 대청동1가 10,35.1041108043,129.0323863767
SH00003826,남악고등학교,4600000000,전라남도,4684000000,무안군,4684025622,삼향읍,전라남도 무안군 삼향읍 남악리 1579,34.8104286907,126.4685605697
SH00000306,남양고등학교,4100000000,경기도,4159000000,화성시,4159026221,남양읍,경기도 화성시 남양읍 남양리 1633-1,37.2077849,126.8241106
SH00011388,남양주공업고등학교,4100000000,경기도,4136000000,남양주시,4136025627,화도읍,경기도 남양주시 화도읍 월산리 99-4,37.6525939,127.3347265
SH00204800,남양주다산고등학교,4100000000,경기도,4136000000,남양주시,4136011200,다산동,경기도 남양주시 다산동 6050,37.6255676367995,127.158519322701
SH00002394,남원고등학교,5200000000,전북특별자치도,5219000000,남원시,5219011100,향교동,전라북도 남원시 향교동 640-1,35.4194319,127.3807584
SH00002395,남원국악예술고등학교,5200000000,전북특별자치도,5219000000,남원시,5219011700,월락동,전라북도 남원시 월락동 159,35.4253943,127.4051063
SH00005279,남원서진여자고등학교,5200000000,전북특별자치도,5219000000,남원시,5219011700,월락동,전라북도 남원시 월락동 173,35.425893,127.4064263
SH00010523,남원여자고등학교,5200000000,전북특별자치도,5219000000,남원시,5219010800,왕정동,전라북도 남원시 왕정동 100,35.4107094,127.3700031
SH00010524,남원용성고등학교,5200000000,전북특별자치도,5219000000,남원시,5219011600,도통동,전라북도 남원시 도통동 213-1,35.4192774,127.3925816
SH00010525,남원제일고등학교,5200000000,전북특별자치도,5219000000,남원시,5219012100,노암동,전라북도 남원시 노암동 730,35.391549,127.3745629
SH00010554,남주고등학교,5000000000,제주특별자치도,5013000000,서귀포시,5013010500,동홍동,제주특별자치도 서귀포시 동홍동 1907,33.2752724,126.564063
SH00006080,남지고등학교,4800000000,경상남도,4874000000,창녕군,4874025321,남지읍,경상남도 창녕군 남지읍 남지리 829-10,35.3872089603,128.471641335
SH00009615,남창고등학교,3100000000,울산광역시,3171000000,울주군,3171025629,온양읍,울산광역시 울주군 온양읍 운화리 6-3,35.4152341,129.2782363
SH00007550,도원고등학교,2700000000,대구광역시,2729000000,달서구,2729011600,도원동,대구광역시 달서구 도원동 1453,35.8052052,128.5454879
SH00008995,도초고등학교,4600000000,전라남도,4691000000,신안군,4691035025,도초면,전라남도 신안군 도초면 수항리 1468,34.7037356,125.9514024
SH00001532,도화기계공업고등학교,2800000000,인천광역시,2817700000,미추홀구,2817710400,도화동,인천광역시 미추홀구 도화동 193-6,37.4749963,126.6524296
SH00009706,독산고등학교,1100000000,서울특별시,1154500000,금천구,1154510200,독산동,서울특별시 금천구 독산동 907-34,37.4760267,126.9108536
SH00009633,돌마고등학교,4100000000,경기도,4113500000,성남시 분당구,4113510600,이매동,경기도 성남시 분당구 이매동 265,37.3932242,127.1317948
SH00009013,동계고등학교,5200000000,전북특별자치도,5277000000,순창군,5277032026,동계면,전라북도 순창군 동계면 관전리 197,35.4493793,127.2402875
SH00001777,문일고등학교,1100000000,서울특별시,1154500000,금천구,1154510300,시흥동,서울특별시 금천구 시흥동 559-1,37.4493523,126.8984231
SH00000437,문일여자고등학교,2800000000,인천광역시,2820000000,남동구,2820010300,만수동,인천광역시 남동구 만수동 977-25,37.4517325,126.7308549
SH00008976,문정고등학교,1100000000,서울특별시,1171000000,송파구,1171010800,문정동,서울특별시 송파구 문정동 90,37.4847089,127.1267288
SH00009559,문정여자고등학교,2900000000,광주광역시,2917000000,북구,2917011500,오치동,광주광역시 북구 오치동 5-12,35.1891987488,126.919453263
SH00005784,문창고등학교,4700000000,경상북도,4728000000,문경시,4728010300,흥덕동,경상북도 문경시 흥덕동 716,36.6026987378,128.199147696
SH00009795,문태고등학교,4600000000,전라남도,4611000000,목포시,4611010100,용당동,전라남도 목포시 용당동 183-5,34.7999908,126.4029667
SH00001533,문학정보고등학교,2800000000,인천광역시,2817700000,미추홀구,2817710700,문학동,인천광역시 미추홀구 문학동 394-4,37.4353632,126.686467
SH00004531,문향고등학교,4600000000,전라남도,4688000000,장성군,4688025026,장성읍,전라남도 장성군 장성읍 기산리 386-2,35.3035346,126.768353
SH00009611,문현고등학교,3100000000,울산광역시,3117000000,동구,3117010100,방어동,울산광역시 동구 방어동 1008,35.4826938,129.4094576
SH00008977,문현고등학교,1100000000,서울특별시,1171000000,송파구,1171010900,장지동,서울특별시 송파구 장지동 838,37.4812764,127.1287497
SH00001437,문현여자고등학교,2600000000,부산광역시,2629000000,남구,2629010900,문현동,부산광역시 남구 문현동 40-1,35.1451377615,129.073947492
SH00003770,문화고등학교,4700000000,경상북도,4713000000,경주시,4713011400,충효동,경상북도 경주시 충효동 717,35.853373972,129.16906605
SH00010522,물금고등학교,4800000000,경상남도,4833000000,양산시,4833025324,물금읍,경상남도 양산시 물금읍 범어리 2673-11,35.3356133,129.016338371
SH00005160,미래산업과학고등학교,1100000000,서울특별시,1135000000,노원구,1135010600,중계동,서울특별시 노원구 중계동 369-3,37.6590494,127.0786348
SH00003191,불암고등학교,1100000000,서울특별시,1135000000,노원구,1135010600,중계동,서울특별시 노원구 중계동 364-10,37.648924,127.0801792
SH00000374,브니엘고등학교,2600000000,부산광역시,2641000000,금정구,2641010700,구서동,부산광역시 금정구 구서동 50,35.2548527607,129.103927803
SH00006145,브니엘여자고등학교,2600000000,부산광역시,2641000000,금정구,2641010700,구서동,부산광역시 금정구 구서동 50-1,35.2548527607,129.103927803
SH00004121,브니엘예술고등학교,2600000000,부산광역시,2641000000,금정구,2641010700,구서동,부산광역시 금정구 구서동 50-1,35.2548527607,129.103927803
SH00006966,비봉고등학교,4100000000,경기도,4159000000,화성시,4159032021,비봉면,경기도 화성시 비봉면 양노리 259-3,37.2368170695,126.8733305306
SH00201859,비슬고등학교,2700000000,대구광역시,2771000000,달성군,2771026522,현풍읍,대구광역시 달성군 현풍읍 중리 482,35.6956993,128.4530924
SH00204732,비아고등학교,2900000000,광주광역시,2920000000,광산구,2920011500,월계동,광주광역시 광산구 월계동 904,35.222396229553,126.836503146477
SH00002571,비전고등학교,4100000000,경기도,4122000000,평택시,4122011800,비전동,경기도 평택시 비전동 1088,36.9983006,127.0938353
SH00004073,빛고을고등학교,2900000000,광주광역시,2917000000,북구,2917013000,신용동,광주광역시 북구 신용동 674,35.2098744805,126.862051846
SH00002424,사곡고등학교,4700000000,경상북도,4719000000,구미시,4719011500,사곡동,경상북도 구미시 사곡동 461-2,36.0968559822,128.35279548
SH00002519,대구상원고등학교,2700000000,대구광역시,2729000000,달서구,2729011500,상인동,대구광역시 달서구 상인동 769-1,35.8220594,128.5382381
SH00009224,대구서부고등학교,2700000000,대구광역시,2717000000,서구,2717010300,평리동,대구광역시 서구 평리동 1070-48,35.8738369,128.5598992
SH00007524,대구서부공업고등학교,2700000000,대구광역시,2717000000,서구,2717010100,내당동,대구광역시 서구 내당동 456-1,35.8570894,128.5483577
SH00009641,대구소프트웨어고등학교,2700000000,대구광역시,2771000000,달성군,2771038031,구지면,대구광역시 달성군 구지면 창리 324,35.6632520147,128.4136172502
SH00009622,대구여자고등학교,2700000000,대구광역시,2726000000,수성구,2726010100,범어동,대구광역시 수성구 범어동 240-4,35.8562356,128.630221
SH00001504,대구여자상업고등학교,2700000000,대구광역시,2720000000,남구,2720010300,대명동,대구광역시 남구 대명동 1835-3,35.8491574,128.5836682
SH00000424,동광고등학교,4100000000,경기도,4113300000,성남시 중원구,4113310100,성남동,경기도 성남시 중원구 성남동 2876-1,37.4346353365,127.143494267
SH00007181,동광산업과학고등학교,5100000000,강원특별자치도,5182000000,고성군,5182033025,토성면,강원특별자치도 고성군 토성면 백촌리 19,38.2946719,128.5426276
SH00004803,동구마케팅고등학교,1100000000,서울특별시,1129000000,성북구,1129010100,성북동,서울특별시 성북구 성북동 168-275,37.5935994,127.0071027
SH00007286,동국대학교사범대학부속고등학교,1100000000,서울특별시,1123000000,동대문구,1123010600,장안동,서울특별시 동대문구 장안동 328,37.5780484428,127.0751335862
SH00001871,동국대학교사범대학부속금산고등학교,5200000000,전북특별자치도,5221000000,김제시,5221045022,금산면,전라북도 김제시 금산면 쌍용리 470,35.7171233,126.9990326
SH00006676,동국대학교사범대학부속여자고등학교,1100000000,서울특별시,1121500000,광진구,1121510300,구의동,서울특별시 광진구 구의동 238-1,37.5425112,127.0867784
SH00000383,동국대학교사범대학부속영석고등학교,4100000000,경기도,4115000000,의정부시,4115010500,용현동,경기도 의정부시 용현동 산 33-9,37.7360763,127.0750926
SH00006167,동남고등학교,4100000000,경기도,4165000000,포천시,4165025021,소흘읍,경기도 포천시 소흘읍 송우리 537-1,37.8277707,127.1356332
SH00006133,동대전고등학교,3000000000,대전광역시,3023000000,대덕구,3023010900,중리동,대전광역시 대덕구 중리동 234-3,36.3563128,127.4240027
SH00008962,동덕여자고등학교,1100000000,서울특별시,1165000000,서초구,1165010100,방배동,서울특별시 서초구 방배동 산 82,37.4759144,126.9927567
SH00006163,동두천고등학교,4100000000,경기도,4125000000,동두천시,4125010300,생연동,경기도 동두천시 생연동 451,37.9047164227,127.0592545513
SH00001491,동두천외국어고등학교,4100000000,경기도,4125000000,동두천시,4125010200,지행동,경기도 동두천시 지행동 310-1,37.8929287,127.0632748
SH00006162,동두천중앙고등학교,4100000000,경기도,4125000000,동두천시,4125010200,지행동,경기도 동두천시 지행동 340-2,37.8913462,127.0582519
SH00006022,미림여자고등학교,1100000000,서울특별시,1162000000,관악구,1162010200,신림동,서울특별시 관악구 신림동 1557-1,37.4665516,126.932908
SH00005223,미림여자정보과학고등학교,1100000000,서울특별시,1162000000,관악구,1162010200,신림동,서울특별시 관악구 신림동 1557-1,37.4665516,126.932908
SH00007188,미사강변고등학교,4100000000,경기도,4145000000,하남시,4145011200,선동,경기도 하남시 선동 418,37.5777563825,127.1837305385
SH00007189,미사고등학교,4100000000,경기도,4145000000,하남시,4145010900,망월동,경기도 하남시 망월동 933,37.5704553,127.193421
SH00005941,미양고등학교,1100000000,서울특별시,1130500000,강북구,1130510100,미아동,서울특별시 강북구 미아동 837-734,37.6232973,127.0122428
SH00009666,미추홀외국어고등학교,2800000000,인천광역시,2820000000,남동구,2820011000,논현동,인천광역시 남동구 논현동 767-2,37.3896170974,126.7244395887
SH00004673,민족사관고등학교,5100000000,강원특별자치도,5173000000,횡성군,5173032026,안흥면,강원특별자치도 횡성군 안흥면 소사리 1300-1,37.4582306,128.14404
SH00010515,밀성고등학교,4800000000,경상남도,4827000000,밀양시,4827010200,내이동,경상남도 밀양시 내이동 602-7,35.5015486436,128.750922463
SH00003756,밀성제일고등학교,4800000000,경상남도,4827000000,밀양시,4827010200,내이동,경상남도 밀양시 내이동 590-1,35.5021835055,128.750147185
SH00009549,사내고등학교,5100000000,강원특별자치도,5179000000,화천군,5179034021,사내면,강원특별자치도 화천군 사내면 사창리 352-1,38.0648992360409,127.519182486409
SH00009810,사동고등학교,4700000000,경상북도,4729000000,경산시,4729012600,사동,경상북도 경산시 사동 296,35.809014,128.75112572
SH00006571,사북고등학교,5100000000,강원특별자치도,5177000000,정선군,5177025622,사북읍,강원특별자치도 정선군 사북읍 사북리 284-29,37.228213613811,128.82920710019
SH00007366,사상고등학교,2600000000,부산광역시,2653000000,사상구,2653010300,덕포동,부산광역시 사상구 덕포동 150-1,35.1688819415,128.985537791
SH00007191,사우고등학교,4100000000,경기도,4157000000,김포시,4157010600,사우동,경기도 김포시 사우동 908,37.6191294,126.7232527
SH00011355,사직고등학교,2600000000,부산광역시,2626000000,동래구,2626010900,사직동,부산광역시 동래구 사직동 632-8,35.2035219,129.0559011
SH00004092,사직여자고등학교,2600000000,부산광역시,2626000000,동래구,2626010900,사직동,부산광역시 동래구 사직동 981-1,35.196843911,129.051447365
SH00001928,사천고등학교,4800000000,경상남도,4824000000,사천시,4824025022,사천읍,경상남도 사천시 사천읍 정의리 62-5,35.0870260634,128.0959837
SH00003838,사천여자고등학교,4800000000,경상남도,4824000000,사천시,4824025023,사천읍,경상남도 사천시 정동면 고읍리 438-37,35.0804525,128.08838694
SH00006194,대구외국어고등학교,2700000000,대구광역시,2729000000,달서구,2729010700,신당동,대구광역시 달서구 신당동 1675,35.8607051,128.4979283
SH00221080,대구이룸고등학교,2700000000,대구광역시,2723000000,북구,2723011200,복현동,대구광역시 북구 복현동 302-16,35.89510264561266,128.62801256959472
SH00009610,대구일과학고등학교,2700000000,대구광역시,2714000000,동구,2714012300,각산동,대구광역시 동구 각산동 1046,35.8867002,128.7225535
SH00004130,대구일마이스터고등학교,2700000000,대구광역시,2714000000,동구,2714010300,효목동,대구광역시 동구 효목동 976,35.8825045,128.6464838
SH00004166,대구전자공업고등학교,2700000000,대구광역시,2729000000,달서구,2729011000,장기동,대구광역시 달서구 장기동 464-10,35.8479121,128.5299128
SH00004133,대구제일고등학교,2700000000,대구광역시,2717000000,서구,2717010200,비산동,대구광역시 서구 비산동 228,35.8709726,128.5738352
SH00009638,대구제일여자상업고등학교,2700000000,대구광역시,2729000000,달서구,2729011400,본리동,대구광역시 달서구 본리동 156-1,35.8405552,128.5459238
SH00004082,동래고등학교,2600000000,부산광역시,2626000000,동래구,2626010300,칠산동,부산광역시 동래구 칠산동 360,35.2011962,129.0921992
SH00001470,동래여자고등학교,2600000000,부산광역시,2641000000,금정구,2641010700,구서동,부산광역시 금정구 구서동 72-3,35.2470438541,129.098198336
SH00004091,동래원예고등학교,2600000000,부산광역시,2626000000,동래구,2626010800,온천동,부산광역시 동래구 온천동 406,35.2146459,129.075499612
SH00009822,동명고등학교,4700000000,경상북도,4785000000,칠곡군,4785032031,동명면,경상북도 칠곡군 동명면 송산리 111,35.9851765584,128.549308238
SH00006993,동명고등학교,2900000000,광주광역시,2920000000,광산구,2920010500,서봉동,광주광역시 광산구 서봉동 518,35.1559756,126.7406044
SH00001456,동명공업고등학교,2600000000,부산광역시,2629000000,남구,2629010800,용당동,부산광역시 남구 용당동 485,35.120752440315,129.102274468808
SH00007311,동명생활경영고등학교,1100000000,서울특별시,1138000000,은평구,1138010600,대조동,서울특별시 은평구 대조동 91-20,37.6141207853339,126.9241425208
SH00003194,동명여자고등학교,1100000000,서울특별시,1138000000,은평구,1138010600,대조동,서울특별시 은평구 대조동 91-20,37.6146895,126.9240099
SH00004142,동문고등학교,2700000000,대구광역시,2726000000,수성구,2726010200,만촌동,대구광역시 수성구 만촌동 82-4,35.8771932,128.6509745
SH00011370,동방고등학교,3000000000,대전광역시,3017000000,서구,3017011600,관저동,대전광역시 서구 관저동 7-1,36.3002142,127.3464491
SH00000451,동백고등학교,4100000000,경기도,4146300000,용인시 기흥구,4146311500,동백동,경기도 용인시 기흥구 동백동 601,37.2834615,127.1585921
SH00008992,밀양고등학교,4800000000,경상남도,4827000000,밀양시,4827010200,내이동,경상남도 밀양시 내이동 1025,35.4936760982,128.745942797
SH00006068,밀양동명고등학교,4800000000,경상남도,4827000000,밀양시,4827025321,하남읍,경상남도 밀양시 하남읍 수산리 466,35.3732128,128.712905423
SH00003755,밀양여자고등학교,4800000000,경상남도,4827000000,밀양시,4827010100,내일동,경상남도 밀양시 내일동 326,35.4952108665,128.755933179
SH00201172,밀양영화고등학교,4800000000,경상남도,4827000000,밀양시,4827036024,상남면,경상남도 밀양시 상남면 평촌리 735,35.4098425781141,128.777645827183
SH00009304,박문여자고등학교,2800000000,인천광역시,2818500000,연수구,2818510600,송도동,인천광역시 연수구 송도동 162-3,37.3827491483,126.6662378091
SH00204040,반곡고등학교,3600000000,세종특별자치시,3611000000,,3611010100,반곡동,세종특별자치시 반곡동 63-3,36.4975777211216,127.317411229012
SH00000303,반송고등학교,4100000000,경기도,4159000000,화성시,4159012700,반송동,경기도 화성시 반송동 213,37.1927054,127.0776892
SH00006871,반여고등학교,2600000000,부산광역시,2635000000,해운대구,2635010300,반여동,부산광역시 해운대구 반여동 1622,35.2029586022,129.126561665
SH00000329,산남고등학교,4300000000,충청북도,4311200000,청주시 서원구,4311210400,산남동,충청북도 청주시 서원구 산남동 1082,36.6085873,127.469732831
SH00004679,산마을고등학교,2800000000,인천광역시,2871000000,강화군,2871035025,양도면,인천광역시 강화군 양도면 삼흥리 460,37.6869232,126.4253746
SH00004670,산본고등학교,4100000000,경기도,4141000000,군포시,4141010400,산본동,경기도 군포시 산본동 1090,37.3708957,126.9258411
SH00003783,산서고등학교,5200000000,전북특별자치도,5274000000,장수군,5274031034,산서면,전라북도 장수군 산서면 동화리 839-73,35.5845515082875,127.395934549887
SH00004143,대구중앙고등학교,2700000000,대구광역시,2726000000,수성구,2726010600,수성동4가,대구광역시 수성구 수성동4가 1145-1,35.8669272,128.6164609
SH00001506,대구체육고등학교,2700000000,대구광역시,2723000000,북구,2723011900,동호동,대구광역시 북구 동호동 463-2,35.9581262,128.5576654
SH00203260,대구해올중·고등학교(대),2700000000,대구광역시,2729000000,달서구,2729010100,성당동,대구광역시 달서구 성당동 434-1,35.8410556856791,128.553638984005
SH00000399,대구혜화여자고등학교,2700000000,대구광역시,2726000000,수성구,2726010200,만촌동,대구광역시 수성구 만촌동 1256-26,35.8501897,128.6484898
SH00002494,대금고등학교,4300000000,충청북도,4377000000,음성군,4377025330,금왕읍,충청북도 음성군 금왕읍 본대리 267-4,36.9818483748,127.527924548
SH00002418,대기고등학교,5000000000,제주특별자치도,5011000000,제주시,5011011600,봉개동,제주특별자치도 제주시 봉개동 1811-1,33.4927894,126.5930275
SH00002585,동북고등학교,1100000000,서울특별시,1174000000,강동구,1174010600,둔촌동,서울특별시 강동구 둔촌동 180-2,37.5200101,127.1406733
SH00002532,동산고등학교,2800000000,인천광역시,2814000000,동구,2814010700,송림동,인천광역시 동구 송림동 97-1,37.4731549,126.6486698
SH00009871,동성고등학교,1100000000,서울특별시,1111000000,종로구,1111016900,혜화동,서울특별시 종로구 혜화동 90-7,37.5850756,127.0024292
SH00000344,동아고등학교,2600000000,부산광역시,2638000000,사하구,2638010100,괴정동,부산광역시 사하구 괴정동 619-41,35.0934009,128.984429546
SH00006115,동아공업고등학교,2600000000,부산광역시,2638000000,사하구,2638010100,괴정동,부산광역시 사하구 괴정동 619-46,35.0932183588,128.988429143
SH00011361,동아마이스터고등학교,3000000000,대전광역시,3011000000,동구,3011011100,자양동,대전광역시 동구 자양동 2,36.3436037,127.454214
SH00011332,동아여자고등학교,2900000000,광주광역시,2915500000,남구,2915511500,봉선동,광주광역시 남구 봉선동 11-1,35.1256569,126.9217149
SH00002536,동안고등학교,4100000000,경기도,4117300000,안양시 동안구,4117310300,평촌동,경기도 안양시 동안구 평촌동 898-3,37.3900603,126.9659019
SH00008947,반포고등학교,1100000000,서울특별시,1165000000,서초구,1165010700,반포동,서울특별시 서초구 반포동 30-19,37.5022177,127.016153
SH00002481,발곡고등학교,4100000000,경기도,4115000000,의정부시,4115010400,신곡동,경기도 의정부시 신곡동 248-36,37.7284602,127.0675253
SH00007176,발안바이오과학고등학교,4100000000,경기도,4159000000,화성시,4159025921,향남읍,경기도 화성시 향남읍 평리 62-1,37.1329549,126.9164218
SH00010495,방산고등학교,1100000000,서울특별시,1171000000,송파구,1171011100,방이동,서울특별시 송파구 방이동 220-5,37.508227,127.1204817
SH00007525,방어진고등학교,3100000000,울산광역시,3117000000,동구,3117010200,화정동,울산광역시 동구 화정동 274-1,35.5046159,129.4229857
SH00001573,배곧고등학교,4100000000,경기도,4139000000,시흥시,4139013500,배곧동,경기도 시흥시 정왕동 2489,37.3740912705,126.732539389
SH00006048,배명고등학교,1100000000,서울특별시,1171000000,송파구,1171010600,삼전동,서울특별시 송파구 삼전동 172-1,37.4984761,127.0955809
SH00009891,배문고등학교,1100000000,서울특별시,1117000000,용산구,1117010800,서계동,서울특별시 용산구 서계동 259-3,37.5499978,126.963904892
SH00002528,배방고등학교,4400000000,충청남도,4420000000,아산시,4420025325,배방읍,충청남도 아산시 배방읍 북수리 729,36.7690567,127.0665024
SH00001859,삼랑진고등학교,4800000000,경상남도,4827000000,밀양시,4827025021,삼랑진읍,경상남도 밀양시 삼랑진읍 송지리 173-1,35.401069116,128.842861052
SH00005495,삼량고등학교,2800000000,인천광역시,2871000000,강화군,2871036021,내가면,인천광역시 강화군 내가면 고천리 1266,37.7122125,126.3909583
SH00009290,삼산고등학교,2800000000,인천광역시,2823700000,부평구,2823710500,삼산동,인천광역시 부평구 삼산동 391-2,37.5214006,126.7461908
SH00009602,삼산고등학교,3100000000,울산광역시,3114000000,남구,3114010600,삼산동,울산광역시 남구 삼산동 1535-4,35.5451841,129.341368
SH00002351,삼성고등학교,1100000000,서울특별시,1162000000,관악구,1162010200,신림동,서울특별시 관악구 신림동 92-222,37.4691633,126.9436438
SH00003775,삼성생활예술고등학교,4700000000,경상북도,4713000000,경주시,4713033024,내남면,경상북도 경주시 내남면 이조리 585,35.7520849,129.198938589
SH00004102,삼성여자고등학교,2600000000,부산광역시,2638000000,사하구,2638010800,감천동,부산광역시 사하구 감천동 598-1,35.094225041,128.99823405
SH00002430,삼성여자고등학교,5000000000,제주특별자치도,5013000000,서귀포시,5013011100,토평동,제주특별자치도 서귀포시 토평동 893,33.2549561,126.5843136
SH00000351,대덕고등학교,3000000000,대전광역시,3020000000,유성구,3020012700,도룡동,대전광역시 유성구 도룡동 384,36.3871925,127.3813672
SH00000352,대덕소프트웨어마이스터고등학교,3000000000,대전광역시,3020000000,유성구,3020012800,장동,대전광역시 유성구 장동 23-9,36.3918825,127.3633497
SH00001472,대덕여자고등학교,2600000000,부산광역시,2653000000,사상구,2653010300,덕포동,부산광역시 사상구 덕포동 산 8-41,35.1794445157,128.993385789
SH00001443,대동고등학교,2600000000,부산광역시,2638000000,사하구,2638010700,구평동,부산광역시 사하구 구평동 112-24,35.0873644347,128.984239189
SH00009772,대동고등학교,4700000000,경상북도,4711300000,포항시 북구,4711311800,우현동,경상북도 포항시 북구 우현동 201-6,36.0583108124,129.357148571
SH00004755,대동세무고등학교,1100000000,서울특별시,1111000000,종로구,1111014800,계동,서울특별시 종로구 계동 35-3,37.5819196,126.9879303
SH00006175,대륜고등학교,2700000000,대구광역시,2726000000,수성구,2726010200,만촌동,대구광역시 수성구 만촌동 산 241,35.8522319,128.6559927
SH00011356,대명여자고등학교,2600000000,부산광역시,2626000000,동래구,2626010100,명장동,부산광역시 동래구 명장동 534,35.2121101942,129.096213891
SH00004062,동암고등학교,5200000000,전북특별자치도,5211100000,전주시 완산구,5211114100,효자동2가,전라북도 전주시 완산구 효자동2가 1200-2,35.8062554,127.1011663
SH00009696,동양고등학교,1100000000,서울특별시,1150000000,강서구,1150010400,가양동,서울특별시 강서구 가양동 1464,37.5687587,126.8470842
SH00004157,동우여자고등학교,4100000000,경기도,4111100000,수원시 장안구,4111113100,이목동,경기도 수원시 장안구 이목동 241-9,37.3194039,126.9823675
SH00005302,동원고등학교,4800000000,경상남도,4822000000,통영시,4822034024,광도면,경상남도 통영시 광도면 죽림리 산 377-1,34.8694895131,128.413122148
SH00006190,동원고등학교,4100000000,경기도,4111100000,수원시 장안구,4111113100,이목동,경기도 수원시 장안구 이목동 241-9,37.3194039,126.9823675
SH00006848,동의공업고등학교,2600000000,부산광역시,2623000000,부산진구,2623010200,전포동,부산광역시 부산진구 양정동 429-19,35.1660097,129.071739734
SH00011357,동인고등학교,2600000000,부산광역시,2626000000,동래구,2626010900,사직동,부산광역시 동래구 사직동 981-90,35.1980639,129.0506309
SH00006219,동인천고등학교,2800000000,인천광역시,2820000000,남동구,2820010300,만수동,인천광역시 남동구 만수동 5-394,37.46636,126.735041
SH00006567,동일공업고등학교,4100000000,경기도,4122000000,평택시,4122011800,비전동,경기도 평택시 비전동 135-4,36.9922674,127.1179264
SH00007172,동일미래과학고등학교,2900000000,광주광역시,2915500000,남구,2915511400,방림동,광주광역시 남구 방림동 30,35.1288703125,126.9273025083
SH00003242,동일여자고등학교,1100000000,서울특별시,1154500000,금천구,1154510300,시흥동,서울특별시 금천구 시흥동 266-2875,37.4509586574828,126.914690634534
SH00002336,동일여자상업고등학교,1100000000,서울특별시,1154500000,금천구,1154510300,시흥동,서울특별시 금천구 시흥동 266-2875,37.4509586574828,126.914690634534
SH00008933,동작고등학교,1100000000,서울특별시,1159000000,동작구,1159010700,사당동,서울특별시 동작구 사당동 236-23,37.4826006809,126.965086025
SH00007202,동주여자고등학교,2600000000,부산광역시,2611000000,중구,2611013500,광복동3가,부산광역시 중구 광복동3가 3-1,35.1008685,129.0312603
SH00001857,동지고등학교,4700000000,경상북도,4711300000,포항시 북구,4711311700,용흥동,경상북도 포항시 북구 용흥동 산 125-3,36.0377697679,129.344209031
SH00009773,동지여자고등학교,4700000000,경상북도,4711300000,포항시 북구,4711311700,용흥동,경상북도 포항시 북구 용흥동 511-3,36.0386021103853,129.348198849694
SH00002388,배영고등학교,5200000000,전북특별자치도,5218000000,정읍시,5218012300,흑암동,전라북도 정읍시 흑암동 520,35.6017716,126.8126179
SH00006582,배재고등학교,1100000000,서울특별시,1174000000,강동구,1174010200,고덕동,서울특별시 강동구 고덕동 313,37.5558123,127.1504916
SH00006870,배정고등학교,2600000000,부산광역시,2629000000,남구,2629010900,문현동,부산광역시 남구 문현동 985-26,35.1321537574,129.067413693
SH00006128,배정미래고등학교,2600000000,부산광역시,2629000000,남구,2629010900,문현동,부산광역시 남구 문현동 1098-5,35.1310893597114,129.068149481738
SH00003129,배화여자고등학교,1100000000,서울특별시,1111000000,종로구,1111011300,필운동,서울특별시 종로구 필운동 14-2,37.5784965824,126.9668658
SH00004688,백령고등학교,2800000000,인천광역시,2872000000,옹진군,2872033022,백령면,인천광역시 옹진군 백령면 북포리 170-1,37.9648515,124.6786857
SH00011374,백마고등학교,4100000000,경기도,4128500000,고양시 일산동구,4128510600,백석동,경기도 고양시 일산동구 백석동 1138,37.6519982,126.794251
SH00005290,백산고등학교,5200000000,전북특별자치도,5280000000,부안군,5280038029,백산면,전라북도 부안군 백산면 오곡리 547-5,35.7080658,126.7898176
SH00009312,백석고등학교,2800000000,인천광역시,2826000000,서구,2826010100,백석동,인천광역시 서구 백석동 67,37.5803467,126.674348
SH00001452,백석고등학교,4100000000,경기도,4128500000,고양시 일산동구,4128510500,마두동,경기도 고양시 일산동구 마두동 784,37.6528443,126.7871944
SH00009594,백송고등학교,4100000000,경기도,4128700000,고양시 일산서구,4128710500,덕이동,경기도 고양시 일산서구 덕이동 753-11,37.6966567,126.7429287
SH00001453,백신고등학교,4100000000,경기도,4128500000,고양시 일산동구,4128510600,백석동,경기도 고양시 일산동구 백석동 1347,37.642593,126.7817465
SH00006442,삼현여자고등학교,4800000000,경상남도,4817000000,진주시,4817012100,상평동,경상남도 진주시 상평동 217-1,35.1773936,128.1120608
SH00004828,삼호고등학교,4600000000,전라남도,4683000000,영암군,4683025326,삼호읍,전라남도 영암군 삼호읍 용앙리 261,34.7515258,126.4695612
SH00001580,삽교고등학교,4400000000,충청남도,4481000000,예산군,4481025321,삽교읍,충청남도 예산군 삽교읍 두리 532-40,36.6880305741,126.7472645424
SH00003192,상계고등학교,1100000000,서울특별시,1135000000,노원구,1135010500,상계동,서울특별시 노원구 상계동 738,37.6525328,127.0556823
SH00001436,상당고등학교,4300000000,충청북도,4311100000,청주시 상당구,4311112400,용암동,충청북도 청주시 상당구 용암동 2033,36.6064211741,127.508620402
SH00002574,상동고등학교,5100000000,강원특별자치도,5175000000,영월군,5175025323,상동읍,강원특별자치도 영월군 상동읍 천평리 414,37.1251008,128.8216292
SH00001534,상동고등학교,4100000000,경기도,4119200000,부천시 원미구,4119210900,상동,경기도 부천시 상동 620-1,37.4909907,126.7450551
SH00004190,상록고등학교,4100000000,경기도,4127100000,안산시 상록구,4127110400,본오동,경기도 안산시 상록구 본오동 828-87,37.2989831008,126.8746848
SH00004193,대부고등학교,4100000000,경기도,4127300000,안산시 단원구,4127311100,대부북동,경기도 안산시 단원구 대부북동 697-6,37.2477508,126.5790638405
SH00006209,대산고등학교,4400000000,충청남도,4421000000,서산시,4421025021,대산읍,충청남도 서산시 대산읍 대산리 132-17,36.9359673,126.4388592
SH00004162,대성고등학교,5100000000,강원특별자치도,5113000000,원주시,5113011500,무실동,강원특별자치도 원주시 무실동 산 123-1,37.3278892,127.9205127
SH00004822,대성고등학교,1100000000,서울특별시,1138000000,은평구,1138010400,갈현동,서울특별시 은평구 갈현동 267-17,37.6222852,126.9095921
SH00009551,대성여자고등학교,2900000000,광주광역시,2915500000,남구,2915510800,진월동,광주광역시 남구 진월동 산 218-1,35.1190673,126.8936574
SH00004096,대성여자상업고등학교,4300000000,충청북도,4311100000,청주시 상당구,4311111200,수동,충청북도 청주시 상당구 수동 428-1,36.6453753301,127.4922457
SH00009018,대성일고등학교,4800000000,경상남도,4888000000,거창군,4888025031,거창읍,경상남도 거창군 거창읍 가지리 326,35.6912959,127.901001
SH00007035,대송고등학교,3100000000,울산광역시,3117000000,동구,3117010200,화정동,울산광역시 동구 화정동 223,35.5052561,129.4189849
SH00009857,대신고등학교,1100000000,서울특별시,1111000000,종로구,1111018100,행촌동,서울특별시 종로구 행촌동 171-1,37.5734256,126.9618971
SH00006112,대신고등학교,4100000000,경기도,4167000000,여주시,4167035021,대신면,경기도 여주시 대신면 후포리 258-1,37.3642299,127.6080997
SH00000358,동천고등학교,2600000000,부산광역시,2629000000,남구,2629010600,대연동,부산광역시 남구 대연동 1572,35.1443366145,129.086802921
SH00006827,동탄고등학교,4100000000,경기도,4159000000,화성시,4159012700,반송동,경기도 화성시 반송동 60,37.2039978,127.0603488
SH00007174,동탄국제고등학교,4100000000,경기도,4159000000,화성시,4159012700,반송동,경기도 화성시 반송동 204-1,37.1891441,127.0784804
SH00001413,동탄중앙고등학교,4100000000,경기도,4159000000,화성시,4159013000,청계동,경기도 화성시 청계동 531,37.201256303,127.1104241
SH00008742,동패고등학교,4100000000,경기도,4148000000,파주시,4148011300,동패동,경기도 파주시 동패동 1976,37.7111988,126.7335896
SH00009283,동해광희고등학교,5100000000,강원특별자치도,5117000000,동해시,5117010700,동회동,강원특별자치도 동해시 동회동 434-4,37.4902212,129.1031878
SH00001539,동해삼육고등학교,5100000000,강원특별자치도,5117000000,동해시,5117010100,천곡동,강원특별자치도 동해시 천곡동 566-3,37.5218899,129.1002058
SH00000434,동해상업고등학교,5100000000,강원특별자치도,5117000000,동해시,5117011100,발한동,강원특별자치도 동해시 발한동 620-3,37.5440853,129.0940716
SH00008914,백암고등학교,1100000000,서울특별시,1147000000,양천구,1147010100,신정동,서울특별시 양천구 신정동 733,37.5117371,126.8440539
SH00002460,백암고등학교,4100000000,경기도,4146100000,용인시 처인구,4146135030,백암면,경기도 용인시 처인구 백암면 근창리 166,37.1647723,127.3690848
SH00001454,백양고등학교,4100000000,경기도,4128100000,고양시 덕양구,4128112800,행신동,경기도 고양시 덕양구 행신동 897,37.629467,126.8382008
SH00001538,백영고등학교,4100000000,경기도,4117300000,안양시 동안구,4117310300,평촌동,경기도 안양시 동안구 평촌동 93-2,37.3862154,126.9645244
SH00001572,백운고등학교,4100000000,경기도,4143000000,의왕시,4143010700,내손동,경기도 의왕시 내손동 665-5,37.3871279,126.9862273
SH00003827,백제고등학교,4600000000,전라남도,4684000000,무안군,4684025023,무안읍,전라남도 무안군 무안읍 성남리 375,34.9814279,126.4733862
SH00009789,백화여자고등학교,5200000000,전북특별자치도,5274000000,장수군,5274035024,계남면,전라북도 장수군 장계면 장계리 24,35.7278211,127.5863576
SH00004518,벌교고등학교,4600000000,전라남도,4678000000,보성군,4678025332,벌교읍,전라남도 보성군 벌교읍 장좌리 511,34.8333503,127.3423401
SH00002446,벌교상업고등학교,4600000000,전라남도,4678000000,보성군,4678025338,벌교읍,전라남도 보성군 벌교읍 회정리 527,34.8466236,127.3498921
SH00002447,벌교여자고등학교,4600000000,전라남도,4678000000,보성군,4678025332,벌교읍,전라남도 보성군 벌교읍 장좌리 606,34.8353287,127.341605
SH00003779,산청고등학교,4800000000,경상남도,4886000000,산청군,4886025022,산청읍,경상남도 산청군 산청읍 옥산리 815,35.4100271,127.8717004
SH00004074,살레시오고등학교,2900000000,광주광역시,2917000000,북구,2917012700,일곡동,광주광역시 북구 일곡동 482,35.2166038,126.8917803
SH00004545,살레시오여자고등학교,2900000000,광주광역시,2911000000,동구,2911011100,지산동,광주광역시 동구 지산동 480-1,35.1470641621417,126.930728873018
SH00009020,삼가고등학교,4800000000,경상남도,4889000000,합천군,4889043024,삼가면,경상남도 합천군 삼가면 일부리 257-1,35.4139475217,128.130994737
SH00009928,삼각산고등학교,1100000000,서울특별시,1130500000,강북구,1130510100,미아동,서울특별시 강북구 미아동 812-4,37.6160393,127.0200563
SH00003751,삼계고등학교,4600000000,전라남도,4688000000,장성군,4688035021,삼계면,전라남도 장성군 삼계면 사창리 339,35.2578727,126.6658789
SH00009233,삼광고등학교,4100000000,경기도,4148000000,파주시,4148037030,적성면,경기도 파주시 적성면 식현리 284,37.9451971648,126.8863407247
SH00006829,삼괴고등학교,4100000000,경기도,4159000000,화성시,4159025632,우정읍,경기도 화성시 우정읍 조암리 139,37.0892894,126.8221016
SH00004527,대아고등학교,4800000000,경상남도,4817000000,진주시,4817012700,이현동,경상남도 진주시 이현동 316,35.1898905,128.0574149
SH00006999,대양전자통신고등학교,2600000000,부산광역시,2629000000,남구,2629010900,문현동,부산광역시 남구 문현동 303-3,35.1333824784,129.073978328
SH00007000,대연고등학교,2600000000,부산광역시,2629000000,남구,2629010600,대연동,부산광역시 남구 대연동 670-4,35.1287977333,129.101982317
SH00001892,대영고등학교,4700000000,경상북도,4721000000,영주시,4721010400,휴천동,경상북도 영주시 휴천동 1770,36.808976,128.6322184
SH00001778,대영고등학교,1100000000,서울특별시,1156000000,영등포구,1156013200,신길동,서울특별시 영등포구 신길동 336-2,37.5036627113,126.9058641355
SH00006197,대원고등학교,2700000000,대구광역시,2771000000,달성군,2771025026,화원읍,대구광역시 달성군 화원읍 본리리 1-1,35.8061748,128.5076852
SH00004646,대원고등학교,1100000000,서울특별시,1121500000,광진구,1121510100,중곡동,서울특별시 광진구 중곡동 176-124,37.563079,127.0889497
SH00004647,대원여자고등학교,1100000000,서울특별시,1121500000,광진구,1121510100,중곡동,서울특별시 광진구 중곡동 176-124,37.563079,127.0889497
SH00003152,대원외국어고등학교,1100000000,서울특별시,1121500000,광진구,1121510100,중곡동,서울특별시 광진구 중곡동 176-124,37.563079,127.0889497
SH00002569,대인고등학교,2800000000,인천광역시,2826000000,서구,2826010500,공촌동,인천광역시 서구 공촌동 47-3,37.5578479,126.678488
SH00005993,대일고등학교,1100000000,서울특별시,1150000000,강서구,1150010200,등촌동,서울특별시 강서구 등촌동 산 88,37.5394531,126.8632842
SH00005606,대일관광고등학교,1100000000,서울특별시,1147000000,양천구,1147010100,신정동,서울특별시 양천구 신정동 1318-3,37.5114127746,126.834904794
SH00005607,대일외국어고등학교,1100000000,서울특별시,1129000000,성북구,1129013300,정릉동,서울특별시 성북구 정릉동 산 16-46,37.6133038725,127.0141757443
SH00006880,동화고등학교,4100000000,경기도,4136000000,남양주시,4136011200,다산동,경기도 남양주시 다산동 4106,37.6079318873,127.161906197
SH00006828,두레자연고등학교,4100000000,경기도,4159000000,화성시,4159025631,우정읍,경기도 화성시 우정읍 화산리 692-11,37.0592363,126.7952975
SH00000390,두루고등학교,3600000000,세종특별자치시,3611000000,,3611011200,고운동,세종특별자치시 고운동 898,36.5162701679,127.227395882
SH00006998,두원공업고등학교,4100000000,경기도,4155000000,안성시,4155034034,미양면,경기도 안성시 미양면 신기리 203-4,36.9970886,127.2422804
SH00005276,두호고등학교,4700000000,경상북도,4711300000,포항시 북구,4711312000,두호동,경상북도 포항시 북구 두호동 1106,36.0627907152,129.37320398
SH00005481,둔내고등학교,5100000000,강원특별자치도,5173000000,횡성군,5173033022,둔내면,강원특별자치도 횡성군 둔내면 둔방내리 96-3,37.5113167401,128.2131180134
SH00004179,범박고등학교,4100000000,경기도,4119400000,부천시 소사구,4119410300,범박동,경기도 부천시 범박동 113-70,37.467381,126.8116357
SH00009230,범서고등학교,3100000000,울산광역시,3171000000,울주군,3171025927,범서읍,울산광역시 울주군 범서읍 구영리 213,35.5699333,129.2492238
SH00009775,범어고등학교,4800000000,경상남도,4833000000,양산시,4833025324,물금읍,경상남도 양산시 물금읍 범어리 2712-7,35.3297121,129.0184462
SH00006443,법성고등학교,4600000000,전라남도,4687000000,영광군,4687037024,법성면,전라남도 영광군 법성면 대덕리 341-1,35.3594296,126.4574026
SH00006137,별가람고등학교,4100000000,경기도,4136000000,남양주시,4136011100,별내동,경기도 남양주시 별내동 909,37.6614376,127.1221911
SH00006879,별내고등학교,4100000000,경기도,4136000000,남양주시,4136011100,별내동,경기도 남양주시 별내동 1051,37.6514587,127.1170377
SH00009826,병영상업고등학교,4600000000,전라남도,4681000000,강진군,4681038026,병영면,전라남도 강진군 병영면 성남리 316,34.7136223,126.8138973
SH00006227,삼일고등학교,5100000000,강원특별자치도,5123000000,삼척시,5123012000,남양동,강원특별자치도 삼척시 남양동 186,37.4321788,129.1656765
SH00007541,삼일공업고등학교,4100000000,경기도,4111500000,수원시 팔달구,4111512800,매향동,경기도 수원시 팔달구 매향동 10-22,37.2855951,127.0199072
SH00001509,삼일상업고등학교,4100000000,경기도,4111500000,수원시 팔달구,4111512800,매향동,경기도 수원시 팔달구 매향동 10-22,37.2855207,127.0205397
SH00000379,삼일여자고등학교,3100000000,울산광역시,3114000000,남구,3114010900,선암동,울산광역시 남구 선암동 650-6,35.5164361,129.3171345
SH00009592,삼정고등학교,2600000000,부산광역시,2632000000,북구,2632010500,구포동,부산광역시 북구 구포동 1251-1,35.1936019797,129.0100284
SH00004195,삼척고등학교,5100000000,강원특별자치도,5123000000,삼척시,5123010500,당저동,강원특별자치도 삼척시 당저동 57,37.4463931,129.1648264
SH00006228,삼척마이스터고등학교,5100000000,강원특별자치도,5123000000,삼척시,5123031024,근덕면,강원특별자치도 삼척시 근덕면 교가리 550,37.3855864,129.225673
SH00009295,삼척여자고등학교,5100000000,강원특별자치도,5123000000,삼척시,5123012000,남양동,강원특별자치도 삼척시 남양동 124,37.4376936385,129.1652705247
SH00010582,삼천포고등학교,4800000000,경상남도,4824000000,사천시,4824010800,벌리동,경상남도 사천시 벌리동 10,34.9427089682,128.0848239
SH00002455,삼천포공업고등학교,4800000000,경상남도,4824000000,사천시,4824010400,동금동,경상남도 사천시 동금동 45-1,34.93428358,128.083975073
SH00001927,삼천포여자고등학교,4800000000,경상남도,4824000000,사천시,4824010400,동금동,경상남도 사천시 동금동 93-1,34.934748061,128.077965832
SH00002456,삼천포중앙고등학교,4800000000,경상남도,4824000000,사천시,4824010800,벌리동,경상남도 사천시 벌리동 304-3,34.9397434886,128.089861231
SH00006994,대전가오고등학교,3000000000,대전광역시,3011000000,동구,3011010500,가오동,대전광역시 동구 가오동 427,36.3106418,127.4545028
SH00009577,대전고등학교,3000000000,대전광역시,3014000000,중구,3014010500,대흥동,대전광역시 중구 대흥동 320-2,36.3220596,127.4240267
SH00009585,대전공업고등학교,3000000000,대전광역시,3020000000,유성구,3020010100,원내동,대전광역시 유성구 원내동 404,36.2975137339,127.3199458485
SH00004105,대전과학고등학교,3000000000,대전광역시,3020000000,유성구,3020012400,구성동,대전광역시 유성구 구성동 19-2,36.3740616,127.3712181
SH00007009,대전관저고등학교,3000000000,대전광역시,3017000000,서구,3017011600,관저동,대전광역시 서구 관저동 983,36.3107441,127.3380408
SH00001448,대전괴정고등학교,3000000000,대전광역시,3017000000,서구,3017010800,괴정동,대전광역시 서구 괴정동 120,36.3400127,127.3791505
SH00007010,대전구봉고등학교,3000000000,대전광역시,3017000000,서구,3017011600,관저동,대전광역시 서구 관저동 1155,36.2956239,127.3309218
SH00004094,대전국제통상고등학교,3000000000,대전광역시,3014000000,중구,3014011600,문화동,대전광역시 중구 문화동 1-87,36.3135018,127.40741
SH00000360,대전노은고등학교,3000000000,대전광역시,3020000000,유성구,3020011900,노은동,대전광역시 유성구 노은동 541,36.3693707,127.3232213
SH00011362,대전대성고등학교,3000000000,대전광역시,3014000000,중구,3014010300,목동,대전광역시 중구 목동 1-95,36.3330916214154,127.41392436991
SH00000333,대전대성여자고등학교,3000000000,대전광역시,3011000000,동구,3011011400,가양동,대전광역시 동구 가양동 309-3,36.3376512113017,127.440691972764
SH00004104,대전대신고등학교,3000000000,대전광역시,3017000000,서구,3017010100,복수동,대전광역시 서구 복수동 283-63,36.3090805,127.3811451
SH00001595,둔촌고등학교,1100000000,서울특별시,1174000000,강동구,1174010600,둔촌동,서울특별시 강동구 둔촌동 79-3,37.530868,127.1439317
SH00009963,등촌고등학교,1100000000,서울특별시,1150000000,강서구,1150010200,등촌동,서울특별시 강서구 등촌동 691-2,37.5625935,126.8450161
SH00004682,라온고등학교,4100000000,경기도,4122000000,평택시,4122010100,서정동,경기도 평택시 서정동 2-73,37.069362,127.0672357
SH00009876,리라아트고등학교,1100000000,서울특별시,1114000000,중구,1114014200,예장동,서울특별시 중구 예장동 8-40,37.5571155,126.988191
SH00204226,링컨고등학교,4700000000,경상북도,4715000000,김천시,4715044028,대덕면,경상북도 김천시 대덕면 관기리 879-1,35.9358479336926,127.950028408648
SH00001880,마령고등학교,5200000000,전북특별자치도,5272000000,진안군,5272037021,마령면,전라북도 진안군 마령면 평지리 583-1,35.7321853,127.3722148
SH00010569,마산가포고등학교,4800000000,경상남도,4812500000,창원시 마산합포구,4812510100,가포동,경상남도 창원시 마산합포구 가포동 494-1,35.1675579,128.5712086
SH00009053,마산고등학교,4800000000,경상남도,4812500000,창원시 마산합포구,4812512800,완월동,경상남도 창원시 마산합포구 완월동 27-3,35.2005185,128.5616874
SH00003823,마산공업고등학교,4800000000,경상남도,4812700000,창원시 마산회원구,4812710600,합성동,경상남도 창원시 마산회원구 합성동 12-3,35.2441381,128.5959613
SH00004516,마산구암고등학교,4800000000,경상남도,4812700000,창원시 마산회원구,4812710100,구암동,경상남도 창원시 마산회원구 구암동 44-5,35.2467216,128.5968516
SH00001923,마산내서여자고등학교,4800000000,경상남도,4812700000,창원시 마산회원구,4812725028,내서읍,경상남도 창원시 마산회원구 내서읍 삼계리 6,35.2372961,128.5028806
SH00009059,마산무학여자고등학교,4800000000,경상남도,4812700000,창원시 마산회원구,4812710800,회원동,경상남도 창원시 마산회원구 회원동 145-1,35.2230259,128.5748875
SH00004524,마산삼진고등학교,4800000000,경상남도,4812500000,창원시 마산합포구,4812532024,진동면,경상남도 창원시 마산합포구 진동면 진동리 533-5,35.1185986,128.4887806
SH00003821,마산여자고등학교,4800000000,경상남도,4812500000,창원시 마산합포구,4812512800,완월동,경상남도 창원시 마산합포구 완월동 300,35.1955856,128.5613581
SH00006431,마산용마고등학교,4800000000,경상남도,4812500000,창원시 마산합포구,4812511800,산호동,경상남도 창원시 마산합포구 산호동 438-1,35.2122737,128.5821184
SH00005296,마산제일고등학교,4800000000,경상남도,4812700000,창원시 마산회원구,4812725024,내서읍,경상남도 창원시 마산회원구 내서읍 용담리 167-1,35.2616415,128.5054861
SH00001920,마산제일여자고등학교,4800000000,경상남도,4812500000,창원시 마산합포구,4812511500,문화동,경상남도 창원시 마산합포구 문화동 4,35.1884309,128.5568907
SH00000304,병점고등학교,4100000000,경기도,4159000000,화성시,4159011700,병점동,경기도 화성시 병점동 861,37.2053578,127.0437222
SH00009252,병천고등학교,4400000000,충청남도,4413100000,천안시 동남구,4413136023,병천면,충청남도 천안시 동남구 병천면 탑원리 146-3,36.7639098,127.3133594
SH00009002,보광고등학교,4800000000,경상남도,4833000000,양산시,4833034021,하북면,경상남도 양산시 하북면 순지리 125-5,35.4922397,129.088060847
SH00005470,보라고등학교,4100000000,경기도,4146300000,용인시 기흥구,4146310500,보라동,경기도 용인시 기흥구 보라동 605,37.2511675,127.1104253
SH00200068,보람고등학교,3600000000,세종특별자치시,3611000000,,3611010300,보람동,세종특별자치시 보람동 664-33,36.4776404451,127.2840392
SH00004084,보문고등학교,2900000000,광주광역시,2920000000,광산구,2920010600,운수동,광주광역시 광산구 운수동 308,35.1541744,126.7769167
SH00006858,보문고등학교,3000000000,대전광역시,3011000000,동구,3011011800,삼성동,대전광역시 동구 삼성동 283-58,36.3367208,127.4238451
SH00006433,보성고등학교,4600000000,전라남도,4678000000,보성군,4678025030,보성읍,전라남도 보성군 보성읍 용문리 200-1,34.7759409,127.0935117
SH00006049,보성고등학교,1100000000,서울특별시,1171000000,송파구,1171011100,방이동,서울특별시 송파구 방이동 89-22,37.5195624,127.1351642
SH00003145,보성여자고등학교,1100000000,서울특별시,1117000000,용산구,1117010200,용산동2가,서울특별시 용산구 용산동2가 1-1123,37.5426751,126.984496
SH00006164,보영여자고등학교,4100000000,경기도,4125000000,동두천시,4125010300,생연동,경기도 동두천시 생연동 522-1,37.9112886902812,127.060892674
SH00007024,보은고등학교,4300000000,충청북도,4372000000,보은군,4372025022,보은읍,충청북도 보은군 보은읍 죽전리 61,36.4754109,127.7218959
SH00003193,상명고등학교,1100000000,서울특별시,1135000000,노원구,1135010600,중계동,서울특별시 노원구 중계동 515-2,37.6494211,127.0682567
SH00004630,상명대학교사범대학부속여자고등학교,1100000000,서울특별시,1111000000,종로구,1111018500,홍지동,서울특별시 종로구 홍지동 25-7,37.6022169915644,126.953720392886
SH00003793,상모고등학교,4700000000,경상북도,4719000000,구미시,4719011600,상모동,경상북도 구미시 상모동 447-1,36.0844972599,128.351717735
SH00004689,상무고등학교,2900000000,광주광역시,2914000000,서구,2914011800,쌍촌동,광주광역시 서구 쌍촌동 1302,35.1547976,126.8601422
SH00001816,상문고등학교,1100000000,서울특별시,1165000000,서초구,1165010100,방배동,서울특별시 서초구 방배동 1000-2,37.4794948,127.0045069
SH00011329,상산고등학교,5200000000,전북특별자치도,5211100000,전주시 완산구,5211114000,효자동1가,전라북도 전주시 완산구 효자동1가 260,35.8045648,127.1186016
SH00009803,상산전자고등학교,4700000000,경상북도,4725000000,상주시,4725013000,계산동,경상북도 상주시 계산동 482-3,36.4300908275,128.161316541
SH00002522,상서고등학교,2700000000,대구광역시,2729000000,달서구,2729010100,성당동,대구광역시 달서구 성당동 670-31,35.8465908,128.5501583
SH00005175,상암고등학교,1100000000,서울특별시,1144000000,마포구,1144012700,상암동,서울특별시 마포구 상암동 1659,37.5813832,126.8836186
SH00006872,대전도안고등학교,3000000000,대전광역시,3020000000,유성구,3020011400,원신흥동,대전광역시 유성구 원신흥동 561,36.3369233045,127.337318086
SH00011363,대전동산고등학교,3000000000,대전광역시,3014000000,중구,3014011600,문화동,대전광역시 중구 문화동 361-1,36.3160523,127.404573
SH00009572,대전동신과학고등학교,3000000000,대전광역시,3011000000,동구,3011012200,비룡동,대전광역시 동구 비룡동 555-1,36.3328737,127.4743002
SH00011369,대전둔산여자고등학교,3000000000,대전광역시,3017000000,서구,3017011100,갈마동,대전광역시 서구 갈마동 823,36.3530976,127.3732385
SH00006118,대전둔원고등학교,3000000000,대전광역시,3017000000,서구,3017011100,갈마동,대전광역시 서구 갈마동 1243,36.3427902,127.373418
SH00009583,대전만년고등학교,3000000000,대전광역시,3017000000,서구,3017012800,만년동,대전광역시 서구 만년동 9,36.3672699,127.3735349
SH00011385,대전반석고등학교,3000000000,대전광역시,3020000000,유성구,3020012000,지족동,대전광역시 유성구 지족동 993,36.3868436,127.3135398
SH00009060,마산중앙고등학교,4800000000,경상남도,4812500000,창원시 마산합포구,4812512300,신월동,경상남도 창원시 마산합포구 신월동 33-60,35.1919273267,128.5584260208
SH00006881,마석고등학교,4100000000,경기도,4136000000,남양주시,4136025629,화도읍,경기도 남양주시 화도읍 녹촌리 69,37.6435616,127.2993351
SH00006843,마송고등학교,4100000000,경기도,4157000000,김포시,4157025022,통진읍,경기도 김포시 통진읍 마송리 509,37.6875609,126.5940249
SH00006853,마장고등학교,4100000000,경기도,4150000000,이천시,4150034022,마장면,경기도 이천시 마장면 양촌리 54,37.2583351,127.3516058
SH00009322,마차고등학교,5100000000,강원특별자치도,5175000000,영월군,5175033021,북면,강원특별자치도 영월군 북면 마차리 산 182,37.2554691,128.4515701
SH00200682,마포고등학교,1100000000,서울특별시,1150000000,강서구,1150010200,등촌동,서울특별시 강서구 등촌동 82-1,37.5599899275,126.8531328488
SH00003767,만경고등학교,5200000000,전북특별자치도,5221000000,김제시,5221025021,만경읍,전라북도 김제시 만경읍 만경리 527,35.8485504825,126.8172884
SH00009007,만경여자고등학교,5200000000,전북특별자치도,5221000000,김제시,5221025021,만경읍,전라북도 김제시 만경읍 만경리 404-2,35.8541124,126.8149823
SH00009591,만덕고등학교,2600000000,부산광역시,2632000000,북구,2632010300,만덕동,부산광역시 북구 만덕동 948,35.2017994624,129.034624854
SH00001582,만리포고등학교,4400000000,충청남도,4482500000,태안군,4482534023,소원면,충청남도 태안군 소원면 신덕리 180,36.7600993,126.1905948
SH00007361,보은여자고등학교,4300000000,충청북도,4372000000,보은군,4372025024,보은읍,충청북도 보은군 보은읍 교사리 116-2,36.4940969812,127.71565413
SH00002484,보은정보고등학교,4300000000,충청북도,4372000000,보은군,4372025030,보은읍,충청북도 보은군 보은읍 성주리 171-2,36.4910002519,127.735285566
SH00005252,보인고등학교,1100000000,서울특별시,1171000000,송파구,1171011200,오금동,서울특별시 송파구 오금동 162,37.4972181,127.1388757
SH00006225,보정고등학교,4100000000,경기도,4146300000,용인시 기흥구,4146311800,보정동,경기도 용인시 기흥구 보정동 1281,37.3141574,127.1094997
SH00001512,보평고등학교,4100000000,경기도,4113500000,성남시 분당구,4113511000,백현동,경기도 성남시 분당구 백현동 544,37.3942658,127.1176047
SH00004141,복자여자고등학교,4400000000,충청남도,4413100000,천안시 동남구,4413110200,성황동,충청남도 천안시 동남구 성황동 9-1,36.8154926,127.1517383
SH00007544,복정고등학교,4100000000,경기도,4113100000,성남시 수정구,4113110700,복정동,경기도 성남시 수정구 복정동 144-1,37.4614878,127.1370446
SH00000307,봉담고등학교,4100000000,경기도,4159000000,화성시,4159025324,봉담읍,경기도 화성시 봉담읍 동화리 570,37.2174229,126.9540369
SH00004507,녹동고등학교,4600000000,전라남도,4677000000,고흥군,4677025323,도양읍,전라남도 고흥군 도양읍 용정리 1318,34.538513,127.1422348
SH00004980,논산고등학교,4400000000,충청남도,4423000000,논산시,4423010900,내동,충청남도 논산시 내동 494-4,36.1818138,127.0983139
SH00000426,논산공업고등학교,4400000000,충청남도,4423000000,논산시,4423010400,부창동,충청남도 논산시 취암동 536-1,36.1982157938,127.0876119254
SH00002538,논산대건고등학교,4400000000,충청남도,4423000000,논산시,4423010600,등화동,충청남도 논산시 등화동 5,36.1836704,127.0776033
SH00001530,논산여자고등학교,4400000000,충청남도,4423000000,논산시,4423010500,취암동,충청남도 논산시 취암동 462-5,36.1950287,127.092335
SH00009663,논산여자상업고등학교,4400000000,충청남도,4423000000,논산시,4423011000,강산동,충청남도 논산시 강산동 53-1,36.1840558,127.0950364
SH00004804,누원고등학교,1100000000,서울특별시,1132000000,도봉구,1132010800,도봉동,서울특별시 도봉구 도봉동 646,37.6855142,127.0498868
SH00009632,늘푸른고등학교,4100000000,경기도,4113500000,성남시 분당구,4113510300,정자동,경기도 성남시 분당구 정자동 6-3,37.3732511,127.1052225
SH00006867,능곡고등학교,4100000000,경기도,4128100000,고양시 덕양구,4128112000,토당동,경기도 고양시 덕양구 토당동 394-3,37.6236787,126.8258935
SH00006866,대전복수고등학교,3000000000,대전광역시,3017000000,서구,3017010100,복수동,대전광역시 서구 복수동 376-2,36.3030646,127.3733462
SH00072376,대전산업정보고등학교,3000000000,대전광역시,3017000000,서구,3017010500,용문동,대전광역시 서구 용문동 284-1,36.3330943709773,127.392349859346
SH00000364,대전생활과학고등학교,3000000000,대전광역시,3023000000,대덕구,3023010100,오정동,대전광역시 대덕구 오정동 225-7,36.3495774775113,127.422924466498
SH00009578,대전성모여자고등학교,3000000000,대전광역시,3014000000,중구,3014010500,대흥동,대전광역시 중구 대흥동 520-1,36.322771,127.4189482
SH00000362,대전송촌고등학교,3000000000,대전광역시,3023000000,대덕구,3023010700,송촌동,대전광역시 대덕구 송촌동 507,36.3634354,127.4459299
SH00009242,망포고등학교,4100000000,경기도,4111700000,수원시 영통구,4111710700,망포동,경기도 수원시 영통구 망포동 672-6,37.2338274,127.0465173
SH00001486,매곡고등학교,3100000000,울산광역시,3120000000,북구,3120010300,매곡동,울산광역시 북구 매곡동 336,35.6448137716,129.35952836
SH00006170,매괴고등학교,4300000000,충청북도,4377000000,음성군,4377037031,감곡면,충청북도 음성군 감곡면 왕장리 498-1,37.1209929867,127.6407943711
SH00203821,매성고등학교,4600000000,전라남도,4617000000,나주시,4617013400,빛가람동,전라남도 나주시 빛가람동 95,35.0286338907204,126.791770829305
SH00006180,매원고등학교,4100000000,경기도,4111700000,수원시 영통구,4111710100,매탄동,경기도 수원시 영통구 매탄동 1229-11,37.2655378,127.0543618
SH00009255,매천고등학교,2700000000,대구광역시,2723000000,북구,2723012600,태전동,대구광역시 북구 태전동 1127,35.9119533,128.547427
SH00004087,봉명고등학교,4300000000,충청북도,4311300000,청주시 흥덕구,4311311500,봉명동,충청북도 청주시 흥덕구 봉명동 2448,36.6549266463,127.455282767
SH00009811,봉양정보고등학교,4700000000,경상북도,4773000000,의성군,4773038040,봉양면,경상북도 의성군 봉양면 화전리 68-2,36.3032503227,128.585345208
SH00001501,봉의고등학교,5100000000,강원특별자치도,5111000000,춘천시,5111012000,후평동,강원특별자치도 춘천시 후평동 891-15,37.8732228,127.7539875
SH00009607,봉일천고등학교,4100000000,경기도,4148000000,파주시,4148026221,조리읍,경기도 파주시 조리읍 봉일천리 254-2,37.7466136,126.8156486
SH00000302,능동고등학교,4100000000,경기도,4159000000,화성시,4159011800,능동,경기도 화성시 능동 1086,37.2137151,127.0573486
SH00006174,능인고등학교,2700000000,대구광역시,2726000000,수성구,2726011200,지산동,대구광역시 수성구 지산동 800,35.8317908,128.6324923
SH00009827,능주고등학교,4600000000,전라남도,4679000000,화순군,4679035024,능주면,전라남도 화순군 능주면 잠정리 106,34.9854291,126.9581788
SH00011367,다대고등학교,2600000000,부산광역시,2638000000,사하구,2638010600,다대동,부산광역시 사하구 다대동 1551,35.0531375677,128.969851933
SH00000420,다사고등학교,2700000000,대구광역시,2771000000,달성군,2771025628,다사읍,대구광역시 달성군 다사읍 매곡리 1277-4,35.8621443214112,128.463362310879
SH00006104,다산고등학교,4100000000,경기도,4150000000,이천시,4150011100,사음동,경기도 이천시 사음동 150-6,37.2911704,127.428919
SH00001439,대전신일여자고등학교,3000000000,대전광역시,3014000000,중구,3014011100,부사동,대전광역시 중구 부사동 379-1,36.308669768,127.433401
SH00009573,대전여자고등학교,3000000000,대전광역시,3011000000,동구,3011011000,대동,대전광역시 동구 대동 16-2,36.3297461,127.4471431
SH00001440,대전여자상업고등학교,3000000000,대전광역시,3014000000,중구,3014010200,선화동,대전광역시 중구 선화동 80-2,36.3338534,127.421683
SH00006874,대전예술고등학교,3000000000,대전광역시,3020000000,유성구,3020011500,상대동,대전광역시 유성구 상대동 234-1,36.3464339,127.3327969
SH00000347,대전외국어고등학교,3000000000,대전광역시,3017000000,서구,3017011000,내동,대전광역시 서구 내동 220-13,36.3366379,127.3654894
SH00000361,대전용산고등학교,3000000000,대전광역시,3020000000,유성구,3020014400,용산동,대전광역시 유성구 용산동 658,36.4207782,127.3960279
SH00000365,대전이문고등학교,3000000000,대전광역시,3023000000,대덕구,3023011100,석봉동,대전광역시 대덕구 석봉동 311-1,36.4476358,127.4228219
SH00006131,대전전민고등학교,3000000000,대전광역시,3020000000,유성구,3020014100,전민동,대전광역시 유성구 전민동 460-2,36.3981076570953,127.398713355017
SH00004115,대전전자디자인고등학교,3000000000,대전광역시,3020000000,유성구,3020013000,화암동,대전광역시 유성구 화암동 174,36.4127404,127.3774951
SH00000349,대전제일고등학교,3000000000,대전광역시,3017000000,서구,3017010300,도마동,대전광역시 서구 도마동 155-20,36.3133147,127.3723642
SH00000334,대전중앙고등학교,3000000000,대전광역시,3014000000,중구,3014010400,중촌동,대전광역시 중구 중촌동 14-1,36.3384718,127.4149239
SH00009243,매탄고등학교,4100000000,경기도,4111700000,수원시 영통구,4111710100,매탄동,경기도 수원시 영통구 매탄동 1247,37.2625279,127.0447296
SH00009262,매향여자정보고등학교,4100000000,경기도,4111500000,수원시 팔달구,4111512800,매향동,경기도 수원시 팔달구 매향동 110-2,37.2851924,127.0187194
SH00006967,매홀고등학교,4100000000,경기도,4137000000,오산시,4137010800,수청동,경기도 오산시 수청동 632,37.1694589557,127.068849696
SH00001704,면목고등학교,1100000000,서울특별시,1126000000,중랑구,1126010100,면목동,서울특별시 중랑구 면목동 77,37.5842779,127.0971627
SH00006077,명덕고등학교,4800000000,경상남도,4873000000,함안군,4873025024,가야읍,경상남도 함안군 가야읍 도항리 463,35.2734512567,128.402476414
SH00005994,명덕고등학교,1100000000,서울특별시,1150000000,강서구,1150010600,내발산동,서울특별시 강서구 내발산동 169-1,37.5536011,126.8347305
SH00005194,명덕여자고등학교,1100000000,서울특별시,1150000000,강서구,1150010600,내발산동,서울특별시 강서구 내발산동 169-1,37.5536011,126.8347305
SH00003229,명덕외국어고등학교,1100000000,서울특별시,1150000000,강서구,1150010600,내발산동,서울특별시 강서구 내발산동 169-1,37.5536011,126.8347305
SH00009562,명문고등학교,4100000000,경기도,4121000000,광명시,4121010100,광명동,경기도 광명시 광명동 379-1,37.4700916,126.850002
SH00006857,명석고등학교,3000000000,대전광역시,3011000000,동구,3011011400,가양동,대전광역시 동구 가양동 116,36.3528569,127.4544168
SH00005494,봉평고등학교,5100000000,강원특별자치도,5176000000,평창군,5176034021,봉평면,강원특별자치도 평창군 봉평면 창동리 332,37.617897,128.3809589
SH00010568,봉화고등학교,4700000000,경상북도,4792000000,봉화군,4792025022,봉화읍,경상북도 봉화군 봉화읍 삼계리 314-2,36.8960371691,128.739968199
SH00010560,봉황고등학교,4600000000,전라남도,4617000000,나주시,4617013400,빛가람동,전라남도 나주시 빛가람동 625,35.0074149361,126.78614375
SH00000438,부개고등학교,2800000000,인천광역시,2823700000,부평구,2823710700,부개동,인천광역시 부평구 부개동 120-546,37.492418,126.7381975
SH00005463,부개여자고등학교,2800000000,인천광역시,2823700000,부평구,2823710700,부개동,인천광역시 부평구 부개동 501-11,37.4980435,126.7407811
SH00004551,부경고등학교,2600000000,부산광역시,2614000000,서구,2614010600,서대신동3가,부산광역시 서구 서대신동3가 521,35.1157804914,129.013307704
SH00000445,부곡고등학교,4100000000,경기도,4127100000,안산시 상록구,4127110700,부곡동,경기도 안산시 상록구 부곡동 446-3,37.33158,126.857464841
SH00000439,부광고등학교,2800000000,인천광역시,2823700000,부평구,2823710300,산곡동,인천광역시 부평구 산곡동 310-30,37.4882038,126.7033672
SH00001542,부광여자고등학교,2800000000,인천광역시,2823700000,부평구,2823710700,부개동,인천광역시 부평구 부개동 19-6,37.5021989,126.7352001
SH00000366,다운고등학교,3100000000,울산광역시,3111000000,중구,3111011200,다운동,울산광역시 중구 다운동 641,35.5664561,129.2706922
SH00203883,다정고등학교,3600000000,세종특별자치시,3611000000,,3611010900,다정동,세종특별자치시 다정동 22-3,36.4933412,127.2422287
SH00002445,다향고등학교,4600000000,전라남도,4678000000,보성군,4678025023,보성읍,전라남도 보성군 보성읍 옥평리 770,34.7636998,127.0928093
SH00009735,단국대학교부속소프트웨어고등학교,1100000000,서울특별시,1168000000,강남구,1168010600,대치동,서울특별시 강남구 대치동 1013,37.4965294018963,127.056467442674
SH00005234,단국대학교사범대학부속고등학교,1100000000,서울특별시,1168000000,강남구,1168010600,대치동,서울특별시 강남구 대치동 1013-3,37.4953357,127.0564936
SH00009010,단성고등학교,4800000000,경상남도,4886000000,산청군,4886037022,단성면,경상남도 산청군 단성면 강누리 364-1,35.3068763,127.9655502
SH00000398,단양고등학교,4300000000,충청북도,4380000000,단양군,4380025026,단양읍,충청북도 단양군 단양읍 도전리 324,36.976845,128.3673288
SH00006222,단원고등학교,4100000000,경기도,4127300000,안산시 단원구,4127310100,고잔동,경기도 안산시 단원구 고잔동 426,37.3274469,126.8241247
SH00004131,달구벌고등학교,2700000000,대구광역시,2714000000,동구,2714014400,덕곡동,대구광역시 동구 덕곡동 75-5,35.9941227,128.6101274
SH00011386,대전지족고등학교,3000000000,대전광역시,3020000000,유성구,3020012000,지족동,대전광역시 유성구 지족동 857,36.3779231,127.3157279
SH00006132,대전체육고등학교,3000000000,대전광역시,3020000000,유성구,3020011400,원신흥동,대전광역시 유성구 원신흥동 530-1,36.3367031,127.3430199
SH00007008,대전한빛고등학교,3000000000,대전광역시,3014000000,중구,3014011900,안영동,대전광역시 중구 안영동 600,36.2809316,127.3733206
SH00005775,대정고등학교,5000000000,제주특별자치도,5013000000,서귀포시,5013025021,대정읍,제주특별자치도 서귀포시 대정읍 상모리 3428,33.2321765,126.2601787
SH00006411,대정여자고등학교,5000000000,제주특별자치도,5013000000,서귀포시,5013025022,대정읍,제주특별자치도 서귀포시 대정읍 하모리 1363,33.2292448,126.2531128
SH00001507,대중금속공업고등학교,2700000000,대구광역시,2723000000,북구,2723011800,읍내동,대구광역시 달성군 가창면 용계리 304-1,35.9557185,128.5539008
SH00002548,대지고등학교,4100000000,경기도,4146500000,용인시 수지구,4146510200,죽전동,경기도 용인시 수지구 죽전동 1333,37.32475,127.1225862
SH00001730,대진고등학교,1100000000,서울특별시,1135000000,노원구,1135010400,하계동,서울특별시 노원구 하계동 55-5,37.6376049,127.07504
SH00009265,대진고등학교,2700000000,대구광역시,2729000000,달서구,2729012300,대곡동,대구광역시 달서구 대곡동 1036,35.8057274,128.5183763
SH00009557,대진고등학교,5100000000,강원특별자치도,5182000000,고성군,5182031023,현내면,강원특별자치도 고성군 현내면 초도리 75,38.4836728,128.4335091
SH00005235,대진디자인고등학교,1100000000,서울특별시,1168000000,강남구,1168011500,수서동,서울특별시 강남구 수서동 733-2,37.4904401,127.0960046
SH00006703,대진여자고등학교,1100000000,서울특별시,1135000000,노원구,1135010600,중계동,서울특별시 노원구 중계동 514-2,37.6464458,127.0672803
SH00000346,대진전자통신고등학교,2600000000,부산광역시,2641000000,금정구,2641010800,장전동,부산광역시 금정구 장전동 657-13,35.2415057021,129.081803338
SH00009049,대창고등학교,4700000000,경상북도,4790000000,예천군,4790025023,예천읍,경상북도 예천군 예천읍 노상리 1,36.6608916027,128.454600734
SH00002518,대천고등학교,4400000000,충청남도,4418000000,보령시,4418010200,죽정동,충청남도 보령시 죽정동 562,36.3655526,126.6054366
SH00003830,명신고등학교,4800000000,경상남도,4817000000,진주시,4817012200,초전동,경상남도 진주시 초전동 1225-1,35.2154531,128.1147745
SH00001545,명신여자고등학교,2800000000,인천광역시,2823700000,부평구,2823710300,산곡동,인천광역시 부평구 산곡동 180-147,37.5046047522,126.6939294035
SH00006427,명인정보고등학교,4700000000,경상북도,4784000000,성주군,4784031038,선남면,경상북도 성주군 선남면 도성리 111-1,35.8858380363,128.364222025
SH00002584,명일여자고등학교,1100000000,서울특별시,1174000000,강동구,1174010100,명일동,서울특별시 강동구 명일동 40,37.5498157,127.1500544
SH00005172,명지고등학교,1100000000,서울특별시,1141000000,서대문구,1141011800,홍은동,서울특별시 서대문구 홍은동 361-30,37.5848709,126.9270773
SH00009571,명진고등학교,2900000000,광주광역시,2920000000,광산구,2920011400,수완동,광주광역시 광산구 수완동 1771,35.1871188,126.8299583
SH00009600,명호고등학교,2600000000,부산광역시,2644000000,강서구,2644010400,명지동,부산광역시 강서구 명지동 3236-3,35.0806282735,128.9000754
SH00006423,모계고등학교,4700000000,경상북도,4782000000,청도군,4782025027,화양읍,경상북도 청도군 화양읍 범곡리 128-2,35.6494614526,128.735990057
SH00006235,모락고등학교,4100000000,경기도,4143000000,의왕시,4143010500,오전동,경기도 의왕시 오전동 산 58-10,37.3699713,126.967007829
SH00000432,부명고등학교,4100000000,경기도,4119200000,부천시 원미구,4119210800,중동,경기도 부천시 중동 1173-1,37.4988833,126.7611504
SH00006146,부산강서고등학교,2600000000,부산광역시,2644000000,강서구,2644010100,대저1동,부산광역시 강서구 대저1동 421-3,35.2164275126,128.982474231
SH00002588,부산고등학교,2600000000,부산광역시,2617000000,동구,2617010100,초량동,부산광역시 동구 초량동 806-177,35.1214682348,129.036630135
SH00004093,부산공업고등학교,2600000000,부산광역시,2629000000,남구,2629010600,대연동,부산광역시 남구 대연동 918-1,35.1301659623,129.087687292
SH00006864,부산과학고등학교,2600000000,부산광역시,2641000000,금정구,2641010700,구서동,부산광역시 금정구 구서동 915,35.263780113,129.083379574
SH00004552,부산관광고등학교,2600000000,부산광역시,2614000000,서구,2614012300,남부민동,부산광역시 서구 남부민동 611-236,35.0825010624,129.022228921
SH00007195,부산국제고등학교,2600000000,부산광역시,2623000000,부산진구,2623010900,당감동,부산광역시 부산진구 당감동 897,35.1672270056,129.023451486
SH00076094,부산국제영화고등학교,2600000000,부산광역시,2617000000,동구,2617010100,초량동,부산광역시 동구 초량동 1144-1,35.1249580247478,129.044313601236
SH00001461,부산국제외국어고등학교,2600000000,부산광역시,2635000000,해운대구,2635010500,우동,부산광역시 해운대구 우동 1025-127,35.1659176686,129.144357576
SH00007204,부산남고등학교,2600000000,부산광역시,2620000000,영도구,2620012100,동삼동,부산광역시 영도구 동삼동 592,35.069942856,129.064961695
SH00000377,부산남일고등학교,2600000000,부산광역시,2650000000,수영구,2650010100,망미동,부산광역시 수영구 망미동 920-10,35.178566392,129.101169131
SH00000375,부산대저고등학교,2600000000,부산광역시,2644000000,강서구,2644010200,대저2동,부산광역시 강서구 대저2동 2039,35.1775874769,128.956294636
SH00001428,부산동고등학교,2600000000,부산광역시,2623000000,부산진구,2623010200,전포동,부산광역시 부산진구 전포동 445-1,35.1532690887,129.071252802
SH00007365,부산동여자고등학교,2600000000,부산광역시,2650000000,수영구,2650010500,남천동,부산광역시 수영구 남천동 6-5,35.1460270026,129.104729401
SH00002587,부산디지털고등학교,2600000000,부산광역시,2611000000,중구,2611011500,동광동5가,부산광역시 중구 영주동 446-2,35.1082051368,129.031777435
SH00005761,부산마케팅고등학교,2600000000,부산광역시,2623000000,부산진구,2623010200,전포동,부산광역시 부산진구 전포동 487,35.1528526885,129.069886064
SH00004114,부산문화여자고등학교,2600000000,부산광역시,2635000000,해운대구,2635010500,우동,부산광역시 해운대구 우동 1025-127,35.165975508,129.143533856
SH00011379,부산백양고등학교,2600000000,부산광역시,2632000000,북구,2632010500,구포동,부산광역시 북구 구포동 888,35.1965686475,128.998081384
SH00007194,부산보건고등학교,2600000000,부산광역시,2620000000,영도구,2620011100,영선동4가,부산광역시 영도구 영선동4가 200,35.0815515,129.041258104
SH00007364,부산산업과학고등학교,2600000000,부산광역시,2644000000,강서구,2644010800,봉림동,부산광역시 강서구 봉림동 29-15,35.1892610551,128.903970067
SH00004694,부산서여자고등학교,2600000000,부산광역시,2614000000,서구,2614010200,동대신동2가,부산광역시 서구 동대신동2가 2-75,35.1134021,129.021318025
SH00007018,부산세무고등학교,2600000000,부산광역시,2629000000,남구,2629010600,대연동,부산광역시 남구 대연동 산 128-1,35.1396493641,129.08582754
SH00001519,달서고등학교,2700000000,대구광역시,2771000000,달성군,2771033027,하빈면,대구광역시 달성군 하빈면 감문리 816,35.8858788,128.4220011
SH00002498,달성고등학교,2700000000,대구광역시,2717000000,서구,2717010100,내당동,대구광역시 서구 내당동 467-1,35.8584184,128.554578
SH00004135,달천고등학교,3100000000,울산광역시,3120000000,북구,3120010900,달천동,울산광역시 북구 달천동 1-7,35.6312698,129.3287257
SH00006421,담양고등학교,4600000000,전라남도,4671000000,담양군,4671025022,담양읍,전라남도 담양군 담양읍 천변리 232,35.3152908,126.9806078
SH00009044,담양공업고등학교,4600000000,전라남도,4671000000,담양군,4671025031,담양읍,전라남도 담양군 담양읍 반룡리 50,35.3019548,126.9825079
SH00006021,당곡고등학교,1100000000,서울특별시,1162000000,관악구,1162010100,봉천동,서울특별시 관악구 봉천동 635-677,37.4916205,126.9346016
SH00002471,당진고등학교,4400000000,충청남도,4427000000,당진시,4427010200,채운동,충청남도 당진시 채운동 353,36.8917695,126.6242433
SH00001588,당진정보고등학교,4400000000,충청남도,4427000000,당진시,4427010200,채운동,충청남도 당진시 채운동 315-1,36.892908,126.6236563
SH00006426,대가야고등학교,4700000000,경상북도,4783000000,고령군,4783025321,대가야읍,경상북도 고령군 대가야읍 쾌빈리 51-2,35.7441148684,128.271427453
SH00001514,대천여자고등학교,4400000000,충청남도,4418000000,보령시,4418010100,대천동,충청남도 보령시 대천동 500-2,36.3607085,126.5844079
SH00009636,대천여자상업고등학교,4400000000,충청남도,4418000000,보령시,4418010700,내항동,충청남도 보령시 내항동 502,36.3316829,126.5792006
SH00002473,대청고등학교,2800000000,인천광역시,2872000000,옹진군,2872034021,대청면,인천광역시 옹진군 대청면 대청리 1143-2,37.8325849185,124.6939788757
SH00006179,대평고등학교,4100000000,경기도,4111100000,수원시 장안구,4111113000,정자동,경기도 수원시 장안구 정자동 870-4,37.2950895,126.988046
SH00002491,대현고등학교,3100000000,울산광역시,3114000000,남구,3114010800,야음동,울산광역시 남구 야음동 789-11,35.5261322,129.3243384022
